Nom de l'offre touristique;Type d'offre;Adresse1;Adresse1Suite;Adresse partie 2;Adresse partie 3;Code postal;Bureau distributeur de l'adresse postale;Commune du lieu de visite;Cedex;Code Insee de la Commune;Latitude;Longitude;Situation de l'offre;N° de téléphone mobile;N° de téléphone fixe;N° de fax;Adresse e-Mail;Url du site web;Url pour accéder à la vidéo;Code Embed pour intégrer une vidéo;Type de plateforme/url;Widget tripadvisor;Secteur d'activité;Labels;Label tourisme handicap;Animal accepté: oui / non;Complément information animal accepté;Groupe accepté: oui / non;Nombre personnes max pour les groupes;Nombre personnes min pour les groupes;Langues parlées à l'accueil;Appellation pour les vins;Dégustations gratuites: oui / non;Salle équipée pour dégustation: oui / non;Vente à la propriété: oui / non;Durée de visite pour les individuels;Durée de visite pour les groupes;Visites guidées proposées aux groupes en permanence: oui / non;Visites guidées proposées aux groupes sur demande: oui / non;Visites libres proposées aux groupes en permanence: oui / non;Visites pédagogiques proposées aux groupes en permanence: oui / non;Visites guidées proposées aux individuels en permanence: oui / non;Visites guidées proposées aux individuels sur demande: oui / non;Langue(s) parlée(s) pendant les visites;Visites libres proposées aux individuels en permanence: oui / non;Les offres proposées;Ouvert toute l'année: oui / non;Horaires d'ouvertures;Moyen(s) de réservation directe;Moyen(s) de réservation en ligne;Centrale de réservation en ligne?;Tarif gratuit : oui / non;Tarif;Modes de paiement acceptés;localisation;departement
Les Merveilles de Sophie;Pain / Pâtisserie;;;;;44680;;SAINTE-PAZANNE;;44186;47.102143;-1.811466;;;07 85 90 39 07;;biscuitslesmerveillesdesophie@gmail.com;http://biscuiterie-les-merveilles-de-sophie.sumupstore.com;;;;;Agro-alimentaire;;;;;;;;;;;;;;;;;;;;;;;;;01/01/2024||31/12/2024||||||08:00||12:00||14:00||18:00||08:00||12:00||14:00||18:00||08:00||12:00||14:00||18:00||08:00||12:00||14:00||18:00||08:00||12:00||14:00||18:00||||||||||||||||,01/01/2025||31/12/2025||||||08:00||12:00||14:00||18:00||08:00||12:00||14:00||18:00||08:00||12:00||14:00||18:00||08:00||12:00||14:00||18:00||08:00||12:00||14:00||18:00||||||||||||||||;;;;;;Cartes bancaires,Espèces;47.102143, -1.811466;Loire-Atlantique
Le Crapaud à Ressorts;;;;Kerbourg;;44410;;SAINT-LYPHARD;;44175;47.397641;-2.308143;;;06 95 53 49 30;;lecrapaudaressorts@gmail.com;https://lecrapaudaressorts.jimdofree.com/;;;;;Artisanat / Art;;;oui;;;;;;;;;;;;;;;;;;;;;;;;;;;;;47.397641, -2.308143;Loire-Atlantique
La Cabane Bleue;Produits du terroir (boutique);;;Kervalet;;44740;;BATZ-SUR-MER;;44010;47.277038;-2.480392;;;06 86 26 91 31;;erwanrivalantpro@outlook.fr;;;;;;Activités de la mer;;;;;;;;;;;;;;;;;;;oui;;;;;;;;;;;;;47.277038, -2.480392;Loire-Atlantique
LES CONFITURES DE VERO;Confiture;11 LA SORINIERE;;;;44310;;SAINT-COLOMBAN;;44155;47.008331;-1.584298;;;06 61 87 40 06;;lesconfituresdevero@gmail.com;https://www.facebook.com/people/Les-Confitures-de-V%C3%A9ro/100023394291288/;;;;;Agro-alimentaire;;;;;;;;Français;;;;;;;;;;;;;;;;oui;;Véro RIONDEL ||06 61 87 40 06||lesconfituresdevero@gmail.com;;;;;;47.008331, -1.584298;Loire-Atlantique
GAEC PROUTEAU;Vins;Bonnezeaux;;;;49380;;BELLEVIGNE-EN-LAYON;;49345;47.266172;-0.500041;;;02 41 54 31 45;;ac.prouteau@free.fr;;;;;;Viticulture;;;;;;;;;;;;;;;;;;;;;;;;;;;;;;;;47.266172, -0.500041;Maine-et-Loire
DOMAINE DE LA MAISON ROUGE;Vins;Les Loges;;;;49540;;TERRANJOU;;49086;47.269065;-0.455232;;;02 41 59 63 81;;;;;;;;Viticulture;;;;;;;;;;;;;;;;;;;;;;;;;;;;;;;;47.269065, -0.455232;Maine-et-Loire
LES SAVONS DE MARGOT;Cosmétique;;;;;44390;;CASSON;;44027;47.39199;-1.57258;;;;;Lessavonsdemargot@laposte.net;;;;Facebook||https://www.facebook.com/profile.php?id=61564196724486;;Artisanat / Art;;;;;;;;;;;;oui;;;;;;;;;;;;oui;;;;;;;;47.39199, -1.57258;Loire-Atlantique
Le fil d'Aure;Textile / Habillement / Chaussure;;;;;44150;;VAIR-SUR-LOIRE;;44163;47.3646194;-1.178243;;06 52 56 68 00;;;contact@lefildaure.fr;http://www.lefildaure.fr;;;Facebook||https://www.facebook.com/lefildauriane/,Instagram||https://www.instagram.com/le_fil_daure/,Tiktok||https://www.tiktok.com/@le.fil.daure;;Artisanat / Art;;;;;;;;Français;;non;;;;;;;;;;;Français;;"Partenariat||DEGPDL044V50S5WK;Partenariat||DEGPDL044V514KNZ";oui;;;;;oui;;Cartes bancaires,Chèques bancaires et postaux,Espèces,Virement;47.3646194, -1.178243;Loire-Atlantique
ANTOINE MERCIER GUIDE NATURALISTE;;;;;;44720;;SAINT-JOACHIM;;44168;47.38336;-2.20114;;06 10 25 43 95;;;antoine-mercier@hotmail.fr;https://www.antoinemercier-guidenature.fr/;;;;;Loisirs et activités;;;;;;;;;;;;;;;;;;;;;;;;;;;;;;Tarif indiv. enfant||||||Visite 1 h : 4 euros,Visite 1h 30 : 6 euros,Visite 2 h : 8 euros,Visite 3h et +	: 10 euros,Tarif indiv. adulte||||||Visite 1 h : 9 euros,Visite 1h 30 : 10 euros,Visite 2 h : 12 euros,Visite 3h et + : 15 euros,Formule famille||||||Visite 1 h : 22 euros,Visite 1h 30 : 25 euros,Visite 2 h : 35 euros,Visite 3h et + : 45 euros;;47.38336, -2.20114;Loire-Atlantique
PRODUCTEURS ALIMENTAIRES DE BAUGEOIS-VALLÉE;Bétail,Bières,Biscuit,Brioche et viennoiserie,Confiserie / chocolat,Confiture,Elevage,Epices / Condiment,Escargot,Foie gras,Fromage et produit laitier,Fruits / légumes,Glace,Huile,Pain / Pâtisserie,Produits apicoles,Produits cidricoles / Jus de fruit,Salaisons,Viande,Vins,Volailles / Oeufs;;;;;49150;;BAUGE-EN-ANJOU;;49018;47.5414;-0.10377;;;;;;https://www.baugeoisvallee.fr/actualites-109/guide-des-producteurs-alimentaires-baugeois-vallee-973.html?cHash=cdecbe774b4a62e41aacb6156254dac9;;;;;"Agriculture / horticulture / Pêche;Agro-alimentaire;Viticulture";;;;;;;;Français;;;;;;;;;;;;;;;;oui;01/01/2024||31/12/2026||||||||||||||||||||||||||||||||||||||||||||||||||||||||||||;;;;oui;;;47.5414, -0.10377;Maine-et-Loire
Brasserie des Nids;Bières;;;;;53370;;SAINT-PIERRE-DES-NIDS;;53246;48.39978;-0.09892;;07 62 43 53 33;;;houblonne.ton.bec@brasserie-des-nids.fr;brasserie-des-nids.fr;;;;;Agro-alimentaire;;;;;;;;;;;;;;;;;;;;;;;;;;;;;;;;48.39978, -0.09892;Mayenne
Galerie Pèle Mêle;;;;;;72340;;LA CHARTRE-SUR-LE-LOIR;;72068;47.728568;0.571416;;;;;stephanelanglois1@gmail.com;;;;;;;;;;;;;;;;;;;;;;;;;;;;;;;;;;;;;;47.728568, 0.571416;Sarthe
Nadej Art - Ateliers Artistiques Multi-Techniques;Peinture;;;;;44350;;GUERANDE;;44069;47.32835;-2.42856;;;07 81 55 06 20;;contact@nadejart.fr;https://www.nadejart.fr;;;;;Artisanat / Art;;;non;;;;;;;;;;;;;;;;;;;;;;;;;;;;Chèques bancaires et postaux,Espèces;47.32835, -2.42856;Loire-Atlantique
Domaine de La Maretière;Vins;;;;7 La Maretière - TILLIERES;49230;;SEVREMOINE;;49301;47.1383089;-1.221023;;;06 12 59 80 35;;contact@domaine-les-maretieres.fr;;;;;;Viticulture;Haute valeur environnementale (HVE),Vigneron Indépendant;;oui;;;;;;"Muscadets communaux;Muscadet Sèvre-et-Maine";oui;oui;oui;;;;;;;;;Français;;"Proposition clientèle||ITIPDL049V50ADIE;Proposition clientèle||ACCAMPDL049V50AD4A;Proposition clientèle||FMAPDL049V50HNW8";oui;01/01/2025||31/12/2025||||||14:00||18:00||||||14:00||18:00||||||14:00||18:00||||||14:00||18:00||||||14:00||18:00||||||09:30||12:30||||||||||||;;;;oui;;Chèques bancaires et postaux,Espèces;47.1383089, -1.221023;Maine-et-Loire
FERME DU GRAND BRICOIN;Fromage et produit laitier;;;;Bricoin;72160;;THORIGNE-SUR-DUE;;72358;48.034546;0.48829;;06 71 48 81 79;;;;;;;Facebook||https://www.facebook.com/fermedugrandbricoin/;;"Agriculture / horticulture / Pêche;Agro-alimentaire";;;;;;;;;;oui;oui;oui;;;;;;;;;;;;oui;;;;;oui;;Cartes bancaires,Chèques bancaires et postaux,Espèces;48.034546, 0.48829;Sarthe
LES VERGERS DU PÈRE ERNEST - CIDRE;Produits cidricoles / Jus de fruit;;;;La Borde du Colombier;72390;;DOLLON;;72118;48.044626;0.587024;;;02 43 93 42 10;;;https://cidredesvergersdupereernest.jimdofree.com/;;;;;Agriculture / horticulture / Pêche;Agriculture Biologique (AB);;;;;;;Français;;;;oui;;;;;;;;;;;;;;;;;;;;48.044626, 0.587024;Sarthe
PRODUITS CIDRICOLES - VERGER DE LA BOUTRUCHÈRE;Produits cidricoles / Jus de fruit;;;;la boutruchere;53240;;LA BACONNIERE;;53015;48.168314;-0.8925736;;06 89 07 21 57;02 43 02 74 74;;;http://pommeaudumaine.com/html/;;;;;Agriculture / horticulture / Pêche;;;;;;;;;;;;oui;;;;;;;;;;;;;;Alain TROHEL||02 43 02 74 74||;;;;;Chèques bancaires et postaux;48.168314, -0.8925736;Mayenne
ANJOU FLEURS;Cosmétique;;;;La Cour;53290;;SAINT-DENIS-D'ANJOU;;53210;47.776295;-0.467623;;;02 43 70 52 07;;contact@anjoufleurs.com;http://www.anjoufleurs.com/;;;Facebook||https://www.facebook.com/AnjouFleurs;;Agriculture / horticulture / Pêche;;;;;;;;Français;;;;;;;;;;;;;Français;;;non;;;;;;;;47.776295, -0.467623;Mayenne
FERME DE LA FORGE;Rillettes,Salaisons,Viande;;;;La Forge;72260;;MAROLLES-LES-BRAULTS;;72189;48.2516122;0.3034012;;;0243974134;;fermedelaforge@hotmail.fr;www.boucherie-traiteur-marolleslesbraults.fr;;;;;Agriculture / horticulture / Pêche;;;;;;;;;;;;oui;;;;;;;;;;;;oui;;;;;;;Cartes bancaires,Chèques bancaires et postaux;48.2516122, 0.3034012;Sarthe
Cor Van Den Ham - Jean-Marie Charrier et Nicolas Gasnot - Maraicher;Fruits / légumes;;;;Le Grillon;72110;;SAINT-CELERIN;;72271;48.107891;0.42162699;;06 38 16 62 73;02 43 29 44 03;;gaeclegrillon72@hotmail.com;;;;;;Agriculture / horticulture / Pêche;Agriculture Biologique (AB);;;;;;;;;;;;;;;;;;;;;;;;;;;;;;;48.107891, 0.42162699;Sarthe
Les Vergers de Souzay;Fruits / légumes,Produits cidricoles / Jus de fruit;;;;lieu-dit Souzay;49140;;CORZE;;49110;47.5384265;-0.355741;;06 07 84 86 79;02 41 76 19 34;;vergersdesauzay@idyle-telecom.com;https://vergersdesouzay.wixsite.com/website;;;;;"Agriculture / horticulture / Pêche;Agro-alimentaire";;;oui;;;;;Anglais,Français;;;;oui;;;;;;;;;Français;;;oui;01/01/2025||31/12/2025||||||||||||||||||||||||||||||||||||||||||||||||||||||||||||,||||||||10:00||12:00||14:00||17:00||10:00||12:00||14:00||17:00||10:00||12:00||14:00||17:00||10:00||12:00||14:00||17:00||10:00||12:00||14:00||17:00||||||||||||||||;;;;oui;;;47.5384265, -0.355741;Maine-et-Loire
DOMAINE SAINT PIERRE;Vins;;;;Saint Pierre;49290;;CHAUDEFONDS-SUR-LAYON;;49082;47.3230214;-0.731371;;;;;domaine.saint.pierre@wanadoo.fr;;;;;;Viticulture;;;;;;;;;;;;;;;;;;;;;;;;;;;;;;;;47.3230214, -0.731371;Maine-et-Loire
Tommes et Compagnie;Fromage et produit laitier;;;;Sainte-Catherine;44430;;LA REMAUDIERE;;44141;47.23912;-1.24737;;;06 83 50 01 22;;commandes@tommesetcie.fr;https://tommesetcie.fr/;;;Instagram||https://www.instagram.com/tommesetcie/;;Agro-alimentaire;Agriculture Biologique (AB);;non;;;;;Anglais,Français;;oui;non;oui;;;non;non;oui;oui;non;non;Français;oui;;oui;;;;;oui;;Cartes bancaires,Chèques bancaires et postaux,Espèces;47.23912, -1.24737;Loire-Atlantique
LE PRESSOIR SAINT LAURENT;Bières,Vins;;;1 avenue Sortais;;44130;;BLAIN;;44015;47.4753716;-1.7627098;;;02 40 79 95 48;;;;;;;;Agro-alimentaire;;;;;;;;;;;;;;;;;;;;;;;;;;;;;;;;47.4753716, -1.7627098;Loire-Atlantique
Produits Sarmance;Cosmétique;;;1 Boulevard D’Alatri;;44190;;GETIGNE;;44063;47.0765181;-1.2391821;;;09 67 33 70 25;;contact@sarmance.com;http://www.sarmance.com/;;;Facebook||https://www.facebook.com/Sarmance-839328199460510/timeline/,Twitter||https://twitter.com/SarmanceLoire;;Activités scientifiques;;;;;;;;;;;;;;;;;;;;;Français,Anglais;;;;;;;;;;;47.0765181, -1.2391821;Loire-Atlantique
Domaine de la Girardrie;Vins;;;1 rue de la Fontaine de Cix;;49260;;LE PUY-NOTRE-DAME;;49253;47.116894;-0.241265;;;02 41 52 25 10;;domaine@girardrie.com;http://www.girardrie.com/fr/les-gites/contact-p25.html;;;Google+||https://maps.google.com/?cid=15186139493927653734;;Viticulture;;;;;;;;;"Cabernet d'Anjou;Coteaux de Saumur;Crémant de Loire;Saumur;Saumur Blanc;Saumur Brut;Saumur Puy Notre Dame;Saumur Rosé";;;oui;;;;;;;;;;;;;||||Pour connaitre le détail, contacter l'établissement.||||||||||||||||||||||||||||||||||||||||||||||||||||||||||;;;;oui;;Cartes bancaires,Chèques bancaires et postaux,Espèces;47.116894, -0.241265;Maine-et-Loire
LE P'TIT LOCAL;Bières,Biscuit,Café,Confiserie / chocolat,Confiture,Cosmétique,Epices / Condiment,Fromage et produit laitier,Fruits / légumes,Pain / Pâtisserie,Produits apicoles,Produits du terroir (boutique),Spiritueux,Viande,Vins,Volailles / Oeufs;;;1 Rue Saint Medard;;44680;;SAINT-MARS-DE-COUTAIS;;44178;47.1128838;-1.7337672;;06 98 75 36 05;02 28 02 78 28;;;https://lepetitlocal.business.site/?utm_source=gmb&utm_medium=referral;;;Facebook||https://www.facebook.com/lepetitlocal44;;Agro-alimentaire;;;;;;;;Français;;;;;;;;;;;;;;;"Partenariat||DEGPDL044V50QMKK;Partenariat||DEGPDL044V50X6BB;Partenariat||DEGPDL044V50XRJD;Partenariat||FMAPDL044V50S43T";oui;;;;;;;Cartes bancaires,Espèces;47.1128838, -1.7337672;Loire-Atlantique
Domaine du Clos de l'Abbaye;Vins;;;10 bis route de Montreuil-Bellay;;49260;;LE PUY-NOTRE-DAME;;49253;47.12622;-0.221173;;;02 41 52 26 71;;domaineaupy@gmail.com;http://www.aupy.com;;;Facebook||https://www.facebook.com/julien.aupy.73,Google+||https://maps.google.com/?cid=6052079589864838866;;Viticulture;;;;;;;;Français;"Anjou Villages;Saumur;Saumur Brut;Saumur Rouge";;;oui;60min;;;;;;;oui;;;;;02/01/2024||23/12/2024||Pour connaitre le détail, contacter l'établissement.||||||||||||||||||||||||||||||||||||||||||||||||||||||||||;;;;oui;;Cartes bancaires,Chèques bancaires et postaux,Espèces;47.12622, -0.221173;Maine-et-Loire
Conserverie La Belle iloise;;;;112 Av. du Général de Gaulle;;44500;;LA BAULE-ESCOUBLAC;;44055;47.28544;-2.39166;;;;;;;;;;;;;;oui;;;;;;;;;;;;;;;;;;;;;;;;;;;;;47.28544, -2.39166;Loire-Atlantique
Les Volailles de Matthieu;;;;114 Kerhas;;44410;;MESQUER;;44097;47.36282;-2.38952;;;06 71 87 58 09;;matthieu.bro1@hotmail.fr;https://lesvolaillesdematthieu.panierlocal.org/;;;;;Agro-alimentaire;;;oui;;;;;;;;;;;;;;;;;;;;;;;;;;;;;47.36282, -2.38952;Loire-Atlantique
GAEC RUCHER DU PAYS DE RETZ;Produits apicoles;;;12 Lieu-dit La Guilloterie;;44680;;SAINT-MARS-DE-COUTAIS;;44178;47.07593;-1.75568;;;;;;;;;;;Agro-alimentaire;;;;;;;;;;;;non;;;;;;;;;;;;oui;;;;;;;;47.07593, -1.75568;Loire-Atlantique
Le Fondant Baulois;Confiserie / chocolat;;;131 Avenue du Général de Gaulle;;44500;;LA BAULE-ESCOUBLAC;;44055;47.28596;-2.39187;;;02 40 23 16 05;;infos@lefondantbaulois.com;http://www.lefondantbaulois.com;;;;;;;;non;;;;;;;;;;;;;;;;;;;;;;;;;;;;;47.28596, -2.39187;Loire-Atlantique
DISTILOIRE;Spiritueux;;;1324 Rue de Saint-Mars;;44240;;SUCÉ-SUR-ERDRE;;44201;47.337078;-1.507704;;06 32 95 33 58;;;contact@distiloire.com;distiloire.com;;;Facebook||https://www.facebook.com/distiloire,Instagram||https://www.instagram.com/distiloire/;;Agro-alimentaire;Agriculture Biologique (AB);;;;;;;Anglais,Français;;oui;oui;oui;;1h30;oui;oui;non;non;non;non;Français;non;;;;;;;oui;;Cartes bancaires,Espèces;47.337078, -1.507704;Loire-Atlantique
Une souris verte;Bijou;;;14 rue de Saillé;Intra Muros;44350;;GUERANDE;;44069;47.32703;-2.42946;;;;;;;;;;;Artisanat / Art;;;oui;;;;;;;;;;;;;;;;;;;;;;;;;;;;;47.32703, -2.42946;Loire-Atlantique
Laiterie Mézerac;Fromage et produit laitier,Produits du terroir (boutique);;;148 Mézerac;;44410;;SAINT-LYPHARD;;44175;47.39427;-2.34536;;;02 40 91 49 80;;contact@ferme-mezerac.fr;http://www.ferme-mezerac.fr;;;;;Agro-alimentaire;;;oui;;;;;;;;;;;;;;;;oui;;;;;;01/01/2025||31/12/2025||||||14:30||18:30||||||14:30||18:30||||||14:30||18:30||||||14:30||18:30||||||14:30||18:30||||||10:00||12:00||||||||||||;;;;;;Cartes bancaires,Chèques bancaires et postaux,Espèces;47.39427, -2.34536;Loire-Atlantique
La Perle des dieux;Produits du terroir (boutique);;;15 rue de l'église;;44510;;LE POULIGUEN;;44135;47.27663;-2.42914;;;02 40 66 57 88;;;https://www.laperledesdieux.com/;;;;;Agriculture / horticulture / Pêche;;;oui;;;;;;;;;;;;;;;;;;;;;;;;;;;;Cartes bancaires,Chèques bancaires et postaux,Espèces;47.27663, -2.42914;Loire-Atlantique
Galerie Art et Créations;;;;15 rue de la Juiverie;;44350;;GUERANDE;;44069;47.32716;-2.42837;;06 62 30 38 52;02 40 66 13 82;;sandrine@dekerhuel.com;http://www.dekerhuel.com;;;;;Artisanat / Art;;;oui;;;;;;;;;;;;;;;;;;;;;;;;;;;;;47.32716, -2.42837;Loire-Atlantique
Le Grain de Sel;Bières,Biscuit,Brioche et viennoiserie,Pain / Pâtisserie,Produits du terroir (boutique),Sel;;;16 rue Saint Michel;Intra-Muros;44350;;GUERANDE;;44069;47.32747;-2.42843;;;02 40 24 93 69;;graindeselguerande@gmail.com;https://www.facebook.com/GraindeSelGuerande/?locale=fr_FR;;;;;Activités de la mer;;;oui;;;;;;;;;;;;;;;;;;;;;;;;;;;;;47.32747, -2.42843;Loire-Atlantique
Galeries Les Astéries;;;;17 rue de casse caillou;;44740;;BATZ-SUR-MER;;44010;47.27746;-2.49202;;;06.33.37.76.03;;;;;;;;Artisanat / Art;;;oui;;;;;;;;;;;;;;;;;;;oui;;;;;;;;;;47.27746, -2.49202;Loire-Atlantique
CHOCOLATERIE-PÂTISSERIE CARLI;Confiserie / chocolat,Pain / Pâtisserie;;;18 place Jean Guihard;;44130;;BLAIN;;44015;47.4757961;-1.7641739;;;02 28 05 75 40;;;;;;;;Agro-alimentaire;;;;;;;;;;;;;;;;;;;;;;;;oui;;;;;oui;;;47.4757961, -1.7641739;Loire-Atlantique
SAVONNERIE GONNORD;Cosmétique;;;18 Rue de la Caillère;;49300;;CHOLET;;49099;47.0574375;-0.8823141;;;02 41 58 53 71;;contact@savonnerie-gonnord.com;http://www.savonnerie-gonnord.com;;;;;Artisanat / Art;;;;;;;;Français;;;;;;;;;;;;;;;;oui;;;||https://www.savonnerie-gonnord.com/||||02 41 58 53 71||contact@savonnerie-gonnord.com;oui;;;Cartes bancaires,Chèques bancaires et postaux,Espèces;47.0574375, -0.8823141;Maine-et-Loire
Le temple de la fraise;Fruits / légumes;;;1bis rue du vieil Averton;;53700;;COURCITE;;53083;48.326071;-0.230494;;;;;;;;;;;Agriculture / horticulture / Pêche;;;non;;;;;Anglais,Français;;oui;non;oui;15-30 mins;15-30 mins;oui;oui;non;oui;oui;oui;Français,Anglais;non;;;;;;;oui;;Espèces;48.326071, -0.230494;Mayenne
Biscuiterie Bretonne;Bières,Biscuit,Brioche et viennoiserie,Epices / Condiment,Fruits / légumes,Fruits de mer,Pain / Pâtisserie,Produits apicoles,Produits cidricoles / Jus de fruit,Sel,Spiritueux,Vins;;;2 boulevard de l'Atlantique;;44510;;LE POULIGUEN;;44135;47.27727;-2.43849;;;02 40 42 95 12;;biscuiteriebretonnelaboutique@orange.fr;http://www.biscuiterie-bretonne-la-boutique.fr;;;;;Activités de la mer;;;non;;;;;;;;;;;;;;;;;;;;;;;;;;;;Cartes bancaires,Chèques bancaires et postaux,Espèces;47.27727, -2.43849;Loire-Atlantique
LES DELICES DU PLONGEON;Glace;;;2 Les Landes du Plongeon;;44810;;HERIC;;44073;47.4469963;-1.6896252;;06 29 68 51 39;;;lesdelicesduplongeon@gmail.com;;;;Facebook||https://www.facebook.com/menoretaurelie;;Agro-alimentaire;;;;;;;;;;;;;;;;;;;;;;;;;;;;;;;;47.4469963, -1.6896252;Loire-Atlantique
Les jardins de Nicolas;Fruits / légumes;;;2 Rue de Verdun;;72240;;NEUVILLALAIS;;72216;48.155658;-0.000483;;06 03 07 94 42;;;lesjardins_denicolas@outlook.fr;;;;Facebook||https://www.facebook.com/lesjardinsdenicolas72/;;Agriculture / horticulture / Pêche;Agriculture Biologique (AB);;;;;;;;;;;;;;;;;;;;;;;oui;||||||||||||||||||||||||||||||||||||||||17:00||19:00||||||||||||||||||||;;||https://www.local.bio/les-jardins-de-nicolas||||||;oui;oui;;;48.155658, -0.000483;Sarthe
Delphine Dugué - Atelier Matmae céramique;Céramique, faïence, émail;;;2 rue du Port au Vin;;49730;;MONTSOREAU;;49219;47.21622;0.059515;;;06 08 23 88 16;;delphine@matmae.fr;https://www.matmae.fr;;;Facebook||https://www.facebook.com/Delphine-DUGUE-C%C3%A9ramiste-111844443917227,Google+||https://goo.gl/maps/y733mJob1Y9JPoSY8,Instagram||https://www.instagram.com/matmaeceramique/?hl=fr;;Artisanat / Art;;;;;;;;Anglais,Français;;;;;;;;;;;;;;;;;01/01/2025||31/12/2025||Pour connaitre le détail, contacter l'établissement.||||||||||||||||||||||||||||||||||||||||||||||||||||||||||;;;;non;;Cartes bancaires,Chèques bancaires et postaux,Espèces;47.21622, 0.059515;Maine-et-Loire
Les Vergers du Marais;Plantes et fleurs;;;2 Rue Piageau;;49730;;VARENNES-SUR-LOIRE;;49361;47.251402;0.012793;;;02 41 51 79 80;;;;;;;;Agriculture / horticulture / Pêche;;;;;;;;Français;;;;;;;;;;;;;;;;;||||Pour connaitre le détail, contacter l'établissement.||||||||||||||||||||||||||||||||||||||||||||||||||||||||||;;;;non;;;47.251402, 0.012793;Maine-et-Loire
Confiserie Manuel;;;;2-4 Avenue du Général de Gaulle;;44500;;LA BAULE-ESCOUBLAC;;44055;47.28195;-2.39212;;;02 40 60 20 66;;contact@niniche-manuel.com;https://www.niniche-manuel.com/;;;;;;;;oui;;;;;;;;;;;;;;;;;;;;;;;;;;;;;47.28195, -2.39212;Loire-Atlantique
LE CHAT BON THÉ;Biscuit,Café,Confiserie / chocolat,Confiture,Epices / Condiment,Produits du terroir (boutique),Sel;;;20 rue Aristide Briand;;44130;;BLAIN;;44015;47.4763609;-1.765034;;;02 28 03 32 38;;nathalie.navas@orange.fr;;;;;;Agro-alimentaire;;;;;;;;;;;;;;;;;;;;;;;;oui;;;;;;;;47.4763609, -1.765034;Loire-Atlantique
L'ATELIER MADELAINE;Bijou,Céramique, faïence, émail,Laine,Plantes et fleurs;;;21 Rue de Nantes;;44270;;MACHECOUL-SAINT-MEME;;44087;46.99173;-1.80947;;06 70 02 22 68;;;lateliermadelaine@gmail.com;;;;;;Loisirs et activités;;;;;;;;;;;;;;;;;;;;;;;;oui;;;;;;;;46.99173, -1.80947;Loire-Atlantique
La Diablotine;Produits du terroir (boutique);;;21 rue Saint-Michel;Intra-muros;44350;;GUERANDE;;44069;47.32746;-2.42777;;;09 81 04 64 16;;contacts@diablotine.fr;https://www.diablotine.fr;;;;;;;;oui;;;;;;;;;;;;;;;;;;;;;;;;;;;;;47.32746, -2.42777;Loire-Atlantique
Domaine Saint-Martin;Vins;;;22 rue des Grouas;TIGNE;49540;LYS-HAUT-LAYON;LYS-HAUT-LAYON;;49373;47.20636;-0.43302;;06 17 60 37 93;02 41 59 63 38;;contact@vins-thomas.fr;http://vins-thomas.fr/;;;;;Viticulture;;;;;;;;;;;;;;;;;;;;;;;;;;;;;;;;47.20636, -0.43302;Maine-et-Loire
FERME DES PROUVERIES;Fromage et produit laitier;;;229 Lieu-dit Les Prouveries;;53540;;LAUBRIERES;;53128;47.95377;-1.06825;;06 29 87 75 80;;;floisa@orange.fr;https://tinyurl.com/les-prouveries;;;;;Agro-alimentaire;Bienvenue à la Ferme;;;;;;;;;;;;;;;;;;;;;;;oui;;;;;;;;47.95377, -1.06825;Mayenne
Daily Bike;Textile / Habillement / Chaussure;;;23 bis rue des Treilles;;44190;;CLISSON;;44043;47.1095272;-1.2453284;;;;;contact@daily-bike.com;https://www.daily-bike.com/;;;;;Artisanat / Art;;;;;;;;;;;;;;;;;;;;;;;;;;;;;;;;47.1095272, -1.2453284;Loire-Atlantique
La belle-iloise - La Turballe;Produits du terroir (boutique);;;23 quai Saint-Paul;;44420;;LA TURBALLE;;44211;47.3485;-2.51272;;;02 40 23 07 03;;contact@labelleiloise.fr;https://www.labelleiloise.fr;;;;;Agriculture / horticulture / Pêche;;;oui;;;;;;;;;;;;;;;;;;;;;;02/01/2025||31/12/2025||||||10:00||12:30||||||10:00||12:30||||||10:00||12:30||||||10:00||12:30||||||10:00||12:30||||||10:00||12:30||||||10:00||12:30||||;;;;;;Cartes bancaires,Chèques bancaires et postaux,Espèces;47.3485, -2.51272;Loire-Atlantique
Atelier Maroline;Bijou,Maroquinerie;;;23 rue d'Anjou;Montjean-sur-Loire;49570;;MAUGES-SUR-LOIRE;;49244;47.3870928;-0.8623667;;06 44 04 04 16;;;info@atelier-maroline.com;https://www.atelier-maroline.com/;;;Facebook||https://www.facebook.com/AtelierCuirMaroline/,Instagram||https://www.instagram.com/atelier.maroline/;;Artisanat / Art;;;;;;;;;;;;;;;;;;;;;Français;non;;;;;||||https://www.atelier-maroline.com/||||;non;oui;;Cartes bancaires,Chèques bancaires et postaux,Espèces,Virement;47.3870928, -0.8623667;Maine-et-Loire
Domaine des Hauts Sentiers du Vignoble Roux;Vins;;;23 rue des Moulins;;49700;;LES ULMES;;49359;47.224558;-0.179163;;;02 41 38 34 68;;scea.rouxfils@wanadoo.fr;https://scearoux.wixsite.com/vignobleroux2;;;;;Viticulture;;;;;;;;Français;"Saumur;Saumur Blanc;Saumur Rouge";;;oui;;;;;;;;;;;;;||||Pour connaitre le détail, contacter l'établissement.||||||||||||||||||||||||||||||||||||||||||||||||||||||||||;;;;oui;;Chèques bancaires et postaux,Espèces;47.224558, -0.179163;Maine-et-Loire
Le Paludier - Maison Bourdic;;;;23 rue Saint-Michel;Intra-muros;44350;;GUERANDE;;44069;47.32746;-2.42778;;;09 71 59 14 89;;boutique@lepaludier.com;http://www.lepaludier.com/;;;;;Activités de la mer;;;oui;;;;;;;;;;;;;;;;;;;;;;;;;;;;;47.32746, -2.42778;Loire-Atlantique
Damien Cornet;;;;24 rue du Bran;;44160;;CROSSAC;;44050;47.41443;-2.17302;;06 65 76 29 06;;;;;;;;;Agro-alimentaire;;;oui;;;;;;;;;;;;;;;;;;;;;;;;;;;;;47.41443, -2.17302;Loire-Atlantique
Ô SAVEURS BAUGEOISES;Biscuit,Brioche et viennoiserie,Café,Confiserie / chocolat,Confiture,Cosmétique,Epices / Condiment,Escargot,Foie gras,Fromage et produit laitier,Fruits / légumes,Glace,Huile,Pain / Pâtisserie,Poisson,Produits apicoles,Produits cidricoles / Jus de fruit,Produits du terroir (boutique),Rillettes,Sel,Spiritueux,Spiruline,Viande,Vins,Volailles / Oeufs;;;25 rue Basse;Baugé;49150;;BAUGE-EN-ANJOU;;49018;47.5419782;-0.1038599;;;02 41 89 33 97;;osaveursbaugeoises@orange.fr;;;;Facebook||https://www.facebook.com/osaveursbaugeoises/;;Agro-alimentaire;;;non;Sauf exception;;;;Anglais,Français;"Anjou Blanc;Anjou Rouge;Anjou Villages;Bourgueil;Cabernet d'Anjou;Crémant de Loire;Rosé de Loire;Saint Nicolas de Bourgueil;Saumur Brut;Saumur Rosé";;;;;;;;;;;;Français;;;oui;;;;;oui;;Cartes bancaires,Chèques bancaires et postaux,Espèces,Tickets Restaurant,Virement;47.5419782, -0.1038599;Maine-et-Loire
Maison Prunier;Rillettes;;;25 rue de la Jatterie;;72160;;CONNERRE;;72090;48.0562189;0.49306632;;;02 43 76 30 00;;;;;;;;Agro-alimentaire;;;;;;;;;;;;;;;;;;;;;;;;;;;;;;;;48.0562189, 0.49306632;Sarthe
LE VINOTIER;Epices / Condiment,Foie gras,Spiritueux,Vins;;;276 Avenue de l'Europe;;44240;;SUCE-SUR-ERDRE;;44201;47.342199;-1.5303377;;;;;fabien@le-vinotier.fr;;;;Facebook||https://www.facebook.com/levinotier;;Agro-alimentaire;;;;;;;;;;;;;;;;;;;;;;;;oui;;;;;;;;47.342199, -1.5303377;Loire-Atlantique
Atelier Art en Ciel;Peinture;;;3 chemin du Parc de la Tonnelle;;44350;;GUERANDE;;44069;47.32396;-2.43586;;06 88 52 65 99;02 40 24 72 69;;viviann44@live.fr;http://viviann.free.fr/;;;;;Artisanat / Art;;;oui;;;;;;;;;;;;;;;;;;;;;;;;;;;;;47.32396, -2.43586;Loire-Atlantique
Jojo's Dough;Biscuit,Brioche et viennoiserie,Pain / Pâtisserie;;;3 rue Vannetaise;Intra-muros;44350;;GUERANDE;;44069;47.32897;-2.42962;;;06 77 58 95 62;;;https://jojosdough.fr/;;;;;;;;oui;;;;;;;;;;;;;;;;;;;;;;;;;;;;;47.32897, -2.42962;Loire-Atlantique
Tasca d'Avo;;;;3 rue Vannetaise;Intra-Muros;44350;;GUERANDE;;44069;47.32897;-2.42962;;;02 40 53 79 35;;contact@tascadavo.fr;https://tasca-davo-guerande.eatbu.com/?lang=fr#;;;;;;;;oui;;;;;;;;;;;;;;;;;;;;;;;;;;;;;47.32897, -2.42962;Loire-Atlantique
DOMAINE DE HAUT-MONT;Vins;;;31, Domaine Du Haut Mont;FAYE D'ANJOU;49380;;BELLEVIGNE-EN-LAYON;;49345;47.300486;-0.5407129;;06 73 11 24 52;02 41 54 02 55;;robin.pichery@wanadoo.fr;;;;;;Viticulture;Haute valeur environnementale (HVE),Vigneron Indépendant;;;;;;;;"Anjou Blanc;Anjou Fines Bulles;Anjou Rouge;Anjou Villages;Bonnezeaux;Cabernet d'Anjou;Coteaux du Layon;Rosé d'Anjou;Rosé de Loire";oui;oui;oui;;;;;;;;;Français;;;oui;;;;;oui;;Cartes bancaires,Chèques bancaires et postaux,Espèces;47.300486, -0.5407129;Maine-et-Loire
Maison Moine;Décoration d'intérieur;;;37 rue du Portail Louis;;49400;;SAUMUR;;49328;47.258312;-0.078693;;;02 41 51 24 20;;maisonmoine@gmail.com;http://www.tapissierdecorateur-brunomoine.com/;;;Facebook||https://www.facebook.com/maisonmoine49/,Google+||https://maps.google.com/?cid=17758744921598481828,Instagram||https://www.instagram.com/maisonmoine;;Artisanat / Art;;;oui;;;;;Anglais,Français;;;;;;;;;;;;;;;;;||||Pour connaitre le détail, contacter l'établissement.||||||||||||||||||||||||||||||||||||||||||||||||||||||||||;;;;non;;Cartes bancaires,Chèques bancaires et postaux,Espèces,Virement;47.258312, -0.078693;Maine-et-Loire
LA CAVE DE L'ERDRE;Bières,Biscuit,Confiserie / chocolat,Confiture,Foie gras,Sel,Spiritueux,Vins;;;38 rue de l'Erdre;;44390;;NORT-SUR-ERDRE;;44110;47.4405702;-1.4980406;;;02 40 72 13 13;02 40 72 22 04;cave.erdre@wanadoo.fr;http://www.lacavedelerdre.fr/;;;Google+||http://www.petitfute.com/adresse/etablissement/id/554199/la-cave-de-l-erdre-produits-gourmands-vins-vins-alcools-caves-maisons-des-vins-nort-sur-erdre;;Viticulture;;;;;;;;Anglais,Français;"Coteaux d'Ancenis;Coteaux du Loir;Fiefs Vendéens;Gros Plant du Pays Nantais;Muscadet;Muscadet Coteaux de la Loire;Muscadet Côtes de Grandlieu;Muscadet Sèvre-et-Maine";oui;oui;oui;;;non;;;;;;Français,Anglais;;;oui;;Marzelière Jean-Philippe||02 40 72 13 13||;;;;;Cartes bancaires,Chèques bancaires et postaux;47.4405702, -1.4980406;Loire-Atlantique
BIOCINELLE;Biscuit,Confiture,Cosmétique,Epices / Condiment,Fromage et produit laitier,Fruits / légumes,Huile,Pain / Pâtisserie,Produits apicoles,Produits cidricoles / Jus de fruit,Produits du terroir (boutique),Salaisons;;;39 rue de Nantes;;44130;;BLAIN;;44015;47.4748936;-1.758049;;;02 40 87 51 99;;;http://biocinelle.biocoop.net;;;;;Agro-alimentaire;Agriculture Biologique (AB);;;;;;;;;;;;;;;;;;;;;;;oui;;;;;;;;47.4748936, -1.758049;Loire-Atlantique
Atelier Rev d'intérieur;;;;4 rue du Taillis;Bouzaire;44350;;GUERANDE;;44069;47.36483;-2.37934;;;06 62 03 86 92;;contact@tapissier-decorateur-guerande.fr;https://www.tapissier-decorateur-guerande.fr/;;;;;Artisanat / Art;;;oui;;;;;;;;;;;;;;;;;;;;;;;;;;;;;47.36483, -2.37934;Loire-Atlantique
Atelier de poterie Terre Citron;Céramique, faïence, émail;;;48 rue de Charost;;44150;;ANCENIS-SAINT-GEREON;;44003;47.36542;-1.1795;;07 68 23 26 89;;;contact@terrecitron.fr;https://terrecitron.fr/;;;Instagram||https://www.instagram.com/terre_citron/;;"Artisanat / Art;Loisirs et activités";;;;;;;;;;;;oui;;;;;;;;;;;Proposition clientèle||FMAPDL044V51FCQ7;;;Coline Gigout||07 68 23 26 89||contact@terrecitron.fr;;;oui;;;47.36542, -1.1795;Loire-Atlantique
PAYSANNE BOULANGÈRE ADELE LEGOUX;Pain / Pâtisserie;;;5 Lieu-dit La Fiolière;;44650;;CORCOUE-SUR-LOGNE;;44156;46.95757;-1.5874;;06 07 49 07 03;;;adelelegoux@gmail.com;;;;;;Agro-alimentaire;;;;;;;;Français;;;;oui;;;;;;;;;;;Partenariat||FMAPDL044V50S4FU;oui;;;;;;;;46.95757, -1.5874;Loire-Atlantique
EARL Famille Bouin;Vins;;;5 Lieu-dit La Haute Recivière;;44330;;MOUZILLON;;44108;47.1221003;-1.2624879;;06 31 18 24 05;02 40 36 35 97;;domainedebeaurepaire@orange.fr;http://www.domaine-de-beaurepaire.com/;;;;;Viticulture;;;;;;;;;;;;;;;;;;;;;;;;oui;;;;;;;;47.1221003, -1.2624879;Loire-Atlantique
ANNE COULON - CÉRAMISTE;Céramique, faïence, émail;;;5 place du Cardinal Dubois;;72120;;SAINT-CALAIS;;72269;47.9214474;0.7454238;;06 70 78 04 66;02 43 35 20 90;;coulon-anne@neuf.fr;www.annecoulon.fr;;;;;Artisanat / Art;;;;;;;;;;;;;;;;;;;;;;;;;;;;;;;;47.9214474, 0.7454238;Sarthe
La Ferme du Mès;;;;5 Route de Gras;;44350;;GUERANDE;;44069;47.37619;-2.36143;;06 71 47 46 50;07 86 17 42 62;;grasjean@hotmail.fr;;;;;;Agro-alimentaire;;;oui;;;;;;;;;;;;;;;;;;;;;;;;;;;;;47.37619, -2.36143;Loire-Atlantique
L'Atelier Createrre;Poterie;;;5 rue du puits neuf;;49400;;SAUMUR;;49328;47.259153;-0.075142;;;06 72 47 37 20;;lateliercreaterre@gmail.com;https://lateliercreaterre.fr/;;;;;Artisanat / Art;;;;;;;;Français;;;;;;;;;;;;;;;;;||||Pour connaitre le détail, contacter l'établissement.||||||||||||||||||||||||||||||||||||||||||||||||||||||||||;;;;non;;;47.259153, -0.075142;Maine-et-Loire
DOMAINE LES TROIS TOITS;;;;51 Rue du Champ de Pie;;44120;;VERTOU;;44215;47.17564;-1.43993;;;;;;;;;;;Viticulture;Caves touristiques vignoble de Loire;;;;;;;;;;;;;;;;;;;;;;;;;;;;;;;47.17564, -1.43993;Loire-Atlantique
Lily en vrac;Biscuit,Brioche et viennoiserie,Confiserie / chocolat,Confiture,Pain / Pâtisserie,Produits cidricoles / Jus de fruit,Produits du terroir (boutique),Spiritueux,Vins;;;6 bis Place du Vieux Marché;Intra-muros;44350;;GUERANDE;;44069;47.32786;-2.42821;;;06 20 67 82 87;;lilyenvrac@gmail.com;http://www.lilyenvrac.fr/;;;;;Viticulture;;;oui;;;;;;;;;;;;;;;;;;;;;;||||||||||||||||09:00||18:00||||||09:00||18:00||||||12:00||18:00||||||09:00||18:00||||||09:00||18:00||||||||||||;;;;;;;47.32786, -2.42821;Loire-Atlantique
Miels Girard,  la Maison des Abeilles;Produits apicoles;;;6 route de Saumur;;49390;;LA BREILLE-LES-PINS;;49045;47.339918;0.064938;;;02 41 52 02 85;;girard-miel@wanadoo.fr;https://www.miel-girard.com/;;;Facebook||https://www.facebook.com/GirardMiel,Instagram||https://www.instagram.com/miels.girard/;;Agro-alimentaire;;;oui;;;;;Anglais,Français;;;;;90min;90min;oui;oui;oui;;;oui;Français;oui;;;01/01/2024||31/12/2024||Pour connaitre le détail, contacter l'établissement.||||||||||||||||||||||||||||||||||||||||||||||||||||||||||,01/01/2025||31/12/2025||Pour connaitre le détail, contacter l'établissement.||||||||||||||||||||||||||||||||||||||||||||||||||||||||||;;||https://boutique.ot-saumur.fr/billetteries-visites/visites-pedagogiques/visite-de-la-miellerie-girard||||||;oui;oui;;Cartes bancaires,Chèques bancaires et postaux,Espèces,Virement;47.339918, 0.064938;Maine-et-Loire
La belle-iloise - Guérande;Produits du terroir (boutique);;;6 rue Saint-Michel;Intra-muros;44350;;GUERANDE;;44069;47.32762;-2.42869;;;02 40 24 56 59;;contact@labelleiloise.fr;http://www.labelleiloise.fr;;;;;Agriculture / horticulture / Pêche;;;oui;;;;;;;;;;;;;;;;;;;;;;||||||||10:00||12:30||15:00||18:30||10:00||12:30||15:00||18:30||10:00||12:30||15:00||18:30||10:00||12:30||15:00||18:30||10:00||12:30||15:00||18:30||09:30||12:30||||||10:00||12:30||15:00||18:30;;;;;;Cartes bancaires,Chèques bancaires et postaux,Espèces;47.32762, -2.42869;Loire-Atlantique
LA FERME DÉTRY;Fruits / légumes;;;60 avenue de Lorraine;;44550;;MONTOIR-DE-BRETAGNE;;44103;47.33317;-2.15169;;06 87 06 30 20;;;detrydavid@gmail.com;;;;;;Agriculture / horticulture / Pêche;Agriculture Biologique (AB);;;;;;;;;;;;;;;;;;;;;;;;;;;;;;;47.33317, -2.15169;Loire-Atlantique
SUEZ - ACTIVITÉ EAU - STATION D'EPURATION DE TOUGAS DE L'AGGLOMERATION NANTAISE;Eau;;;64 Quai Émile Cormerais;;44800;;SAINT-HERBLAIN;;44162;47.19677;-1.6295;;;;;communication.grandouest@suez.com;https://www.suez.com/fr;;;;;Assainissement et traitement des déchets;Visitez nos entreprises;;;;;;;;;;;;;;;;;;;;;;;;;;;;;;;47.19677, -1.6295;Loire-Atlantique
Biscuiterie La Trinitaine;Bières,Biscuit,Confiserie / chocolat,Epices / Condiment,Fruits / légumes,Fruits de mer,Pain / Pâtisserie,Produits apicoles,Produits cidricoles / Jus de fruit,Produits du terroir (boutique),Sel,Spiritueux,Vins;;;68 Avenue du Général de Gaulle;;44500;;LA BAULE-ESCOUBLAC;;44055;47.28426;-2.39174;;;02 40 11 38 61;;contact@latrinitaine.com;https://www.latrinitaine.com;;;;;"Activités de la mer;Viticulture";;;non;;;;;;;;;;;;;;oui;;;;;oui;;;;;;;;;Cartes bancaires,Espèces;47.28426, -2.39174;Loire-Atlantique
Brasserie Artisanale des Mauges - La Rombière;Bières;;;69 rue de la Lime;BEAUPREAU;49600;;BEAUPREAU-EN-MAUGES;;49023;47.2086198;-0.9970669;;06 09 35 72 11;02 41 85 54 26;partenaire ôsezMauges 23;brasserie@larombiere.com;https://www.larombiere.com/;;;Facebook||https://www.facebook.com/larombiere/;;Agro-alimentaire;;;;;;;;;;;oui;oui;;;oui;oui;;;;;;;;oui;01/01/2025||31/12/2025||||||||||||||12:00||14:00||||||12:00||14:00||16:30||21:30||12:00||14:00||16:30||22:30||12:00||14:00||16:00||22:30||10:00||13:00||16:00||22:30||||||||;LA ROMBIERE||02 41 85 54 26||brasserie@larombiere.com;;;oui;;Cartes bancaires,Chèques bancaires et postaux,Espèces;47.2086198, -0.9970669;Maine-et-Loire
L'Instant Divin;Art de la table,Biscuit,Confiserie / chocolat,Epices / Condiment;;;7 bis Rue de la Maladrerie;Beaufort-en-Vallée;49250;;BEAUFORT-EN-ANJOU;;49021;47.4396662;-0.2149888;;;02 41 47 21 28;;linstantdivin.49@gmail.com;linstant-divin.fr;;;Facebook||https://www.facebook.com/DelicieuxInstants/;;Agro-alimentaire;;;;;;;;;;;;;;;;;;;;;Français;;;oui;;;;;oui;;Cartes bancaires;47.4396662, -0.2149888;Maine-et-Loire
L'EPICERIE DE FONTAINE-DANIEL;Bières,Cosmétique,Fromage et produit laitier,Fruits / légumes,Pain / Pâtisserie,Produits apicoles,Produits cidricoles / Jus de fruit,Produits du terroir (boutique),Produits monastiques,Spiritueux,Vins;;;7 Rue de Fontaine Daniel;;53100;;SAINT-GEORGES-BUTTAVENT;;53219;48.309281;-0.695051;;;02 43 04 44 07;;contact@lepicerie.org;http://www.lepicerie.org;https://www.facebook.com/lepiceriecooperativefontainedaniel/videos/401154710894635;;Facebook||https://www.facebook.com/lepiceriecooperativefontainedaniel,Instagram||https://www.instagram.com/lepiceriedefontainedaniel/;;"Agro-alimentaire;Artisanat / Art";;;;;;;;Anglais;;;;non;;;;;;;;;;;;oui;||||||||09:30||13:00||14:30||19:00||||||||||09:30||13:00||14:30||19:00||09:30||13:00||14:30||19:00||09:30||13:00||14:30||19:00||09:30||13:00||14:30||19:00||09:30||13:00||||;;;;;;Cartes bancaires,Chèques bancaires et postaux,Espèces;48.309281, -0.695051;Mayenne
Bijoux Ultreïa!;Bijou;;;7 rue de la mairie;;49730;;TURQUANT;;49358;47.223323;0.027933;;;06 89 97 36 89;;sylvie.naulin@gmail.com;;;;Facebook||https://www.facebook.com/Bijoux-Ultreia-271827289623231/;;Artisanat / Art;;;oui;;;;;Anglais,Français;;;;;;;;;;;;;;;;;01/03/2025||27/12/2025||Pour connaitre le détail, contacter l'établissement.||||||||||||||||||||||||||||||||||||||||||||||||||||||||||;;;;non;;Cartes bancaires,Espèces;47.223323, 0.027933;Maine-et-Loire
FERME DU PONT TOURNANT;Viande;;;7, route des rivières;;44320;;FROSSAY;;44061;47.26108;-1.92214;;;06 23 01 85 60;;gdp44ventealaferme@outlook.fr;;;;;;Agriculture / horticulture / Pêche;;;;;;;;;;;;;;;;;;;;;;;;;;;;;;;Chèques bancaires et postaux,Espèces;47.26108, -1.92214;Loire-Atlantique
Les rdv créatifs de Nath;Décoration d'intérieur;;;750 Boulevard Pasteur;;44150;;ANCENIS-SAINT-GEREON;;44003;47.373482;-1.176833;;06 80 22 34 00;;;lesrdvcreatifsdenath@hotmail.com;;;;Facebook||https://www.facebook.com/lesrdvcreatifsdenath/,Instagram||https://www.instagram.com/lesrdvcreatifsde/;;Loisirs et activités;;;;;;;;Français;;;;;;;;;;;;;;;;oui;||||||||||||14:00||17:00||||||14:00||17:00||||||14:00||17:00||||||14:00||17:00||||||14:00||17:00||||||14:00||17:00||||||||;;;;;;Cartes bancaires;47.373482, -1.176833;Loire-Atlantique
La boutique by Laval Tourisme;Art de la table,Bières,Bijou,Biscuit,Céramique, faïence, émail,Confiserie / chocolat,Confiture,Cosmétique,Décoration d'intérieur,Epices / Condiment,Jouet et jeu,Maroquinerie,Plantes et fleurs,Poterie,Produits cidricoles / Jus de fruit,Produits du terroir (boutique),Rillettes,Textile / Habillement / Chaussure;;;84 Avenue Robert Buron;;53000;;LAVAL;;53130;48.07444;-0.76213;;;02 43 49 46 46;;info@laval-tourisme.com;;;;;;;;;;;;;;Anglais;;;;;;;;;;;;;;;;oui;||||||||09:30||13:00||14:00||18:00||||||14:00||18:00||09:30||13:00||14:00||18:00||09:30||13:00||14:00||18:00||09:30||13:00||14:00||18:00||09:30||13:00||14:00||18:00||||||||;;;;oui;;Cartes bancaires,Chèques bancaires et postaux,Chèques Vacances,Espèces;48.07444, -0.76213;Mayenne
CREATIONS CERAMIQUES - ANNE LAURE FLOËSSEL;Céramique, faïence, émail;;;845 route des Carriots -La petite rieu;Montpollin;49150;;BAUGE-EN-ANJOU;;49018;47.5911466;-0.1074738;;06 09 76 46 48;;;alfoessel@ceramiquealafolie.com;http://www.ceramiquealafolie.com;;;Facebook||https://www.facebook.com/Alfoesselceramique-a-la-folie-103200878497924;;Artisanat / Art;;;non;;;;;;;;;;;;;;;;;;Français;;;oui;01/01/2025||31/12/2025||sur rendez-vous||||||||||||||||||||||||||||||||||||||||||||||||||||||||||;;;;oui;;;47.5911466, -0.1074738;Maine-et-Loire
L'Atelier du Sel;Epices / Condiment;;;9 Impasse du Bréniguen;PA du Mès;44350;;SAINT-MOLF;;44183;47.38948;-2.4326;;06 72 54 27 22;06 78 62 74 84;;contact@latelierdusel.fr;https://leseldeguerande.fr/;;;;;Activités de la mer;;;oui;;;;;;;;;;;;;;;;;;;;;;;;;;;;;47.38948, -2.4326;Loire-Atlantique
LE BAUGEOIS D'ANJOU;Pain / Pâtisserie;;;Baugé;Baugé;49150;;BAUGE-EN-ANJOU;;49018;47.5410397;-0.1012308;;;;;;;;;;;;;;;;;;;;;;;;;;;;;;;;;;;oui;;;;;;;;47.5410397, -0.1012308;Maine-et-Loire
LA FERME DES BECS A GRAINS;Elevage,Foie gras,Rillettes,Viande,Volailles / Oeufs;;;BEAUTRAIT;;44170;;LA GRIGONNAIS;;44224;47.523289;-1.6860225;;06 62 19 61 05;;;fermebecsagrains@gmail.com;;;;Facebook||https://www.facebook.com/La-Ferme-des-Becs-%C3%A0-Grains-1522065051186475/;;Agriculture / horticulture / Pêche;Agriculture Biologique (AB);;;;;;;;;;;oui;;;;oui;;;;oui;;;;;;;;;;;;47.523289, -1.6860225;Loire-Atlantique
Domaine de l'Ours Bleu;Vins;;;Domaine de Chaumont;;49730;;MONTSOREAU;;49219;47.218417;0.050819;;;06 50 80 69 39;;ldob.chaumont@gmail.com;https://domaine-ours-bleu.fr;;;Facebook||https://www.facebook.com/domainedeloursbleu;;Viticulture;Agriculture Biologique (AB);;oui;;;;;Français;"Saumur;Saumur Blanc;Saumur Champigny;Saumur Rosé;Saumur Rouge";;;oui;;;;;;;;;;;;;01/01/2024||31/12/2024||Pour connaitre le détail, contacter l'établissement.||||||||||||||||||||||||||||||||||||||||||||||||||||||||||;;;;oui;;;47.218417, 0.050819;Maine-et-Loire
Le Prieuré de la Dive;Fruits / légumes,Produits apicoles,Vins;;;Fosse Bellay;;49700;;CIZAY-LA-MADELEINE;;49100;47.182896;-0.166541;;;02 41 67 00 72;;anneclaire@prieuredeladive.fr;http://prieuredeladive.fr/;;;Facebook||https://fr-fr.facebook.com/leprieuredeladive/;;"Agro-alimentaire;Viticulture";Agriculture Biologique (AB);;;;;;;Français;"Saumur;Saumur Blanc;Saumur Rosé;Saumur Rouge";;;oui;;;;;;;;;;;;;||||Pour connaitre le détail, contacter l'établissement.||||||||||||||||||||||||||||||||||||||||||||||||||||||||||;;;;non;;Cartes bancaires,Chèques bancaires et postaux,Espèces;47.182896, -0.166541;Maine-et-Loire
LES VERGERS DU GUILLAUMAI;Fruits / légumes;;;Guillaumai;LA POMMERAYE;49620;;MAUGES-SUR-LOIRE;;49244;47.3268849;-0.8636918;;;02 41 43 53 85;;jcbore@wanadoo.fr;;;;;;Agriculture / horticulture / Pêche;;;;;;;;;;;;;;;;;;;;;;;;non;||||||||||||||||||||||||09:00||12:30||||||09:00||||||17:30||09:00||12:30||||||||||||||||||||;;;;;;;47.3268849, -0.8636918;Maine-et-Loire
Maison Sébastien Briault;;;;Kercredi;;44350;;GUERANDE;;44069;47.34336;-2.44122;;;06 95 28 25 28;;maisonsebastienbriault@gmail.com;;;;;;;;;oui;;;;;;;;;;;;;;;;;;;;;;;;;;;;;47.34336, -2.44122;Loire-Atlantique
Ferme de la Blanchetière;Fromage et produit laitier;;;La Blanchetière;Belligné;44370;;LOIREAUXENCE;;44213;47.4857961;-1.0649166;;;02 40 96 83 16;;chevres.blanchetiere@orange.fr;http://www.lablanchetiere.fr;;;Facebook||https://www.facebook.com/GaecDeLaBlanchetiere/;;"Agriculture / horticulture / Pêche;Loisirs et activités";Agriculture Biologique (AB);;;;;;;;;non;oui;oui;1h30;1h30;non;;;oui;non;;Français;;;oui;||||||||||||||||09:00||11:00||||||09:00||11:00||||||09:00||11:00||||||09:00||11:00||15:00||19:30||09:00||11:00||||||||||||;;;;oui;Tarif indiv. adulte||||||à partir de 13 ans.,Tarif indiv. enfant||||||de 6 à 12 ans inclus.;Cartes bancaires,Chèques bancaires et postaux,Espèces;47.4857961, -1.0649166;Loire-Atlantique
BOEUF DE LA BODINIÈRE;Viande;;;La Bodinière;Ampoigné;53200;;PREE-D'ANJOU;;53124;47.826894;-0.849337;;;02 43 70 05 49;;;;;;Facebook||https://www.facebook.com/Ferme-La-Bodini%C3%A8re-104208274566573;;"Agriculture / horticulture / Pêche;Agro-alimentaire";Bienvenue à la Ferme;;;;;;;;;;;oui;;;;;;;;;;;;oui;;;;;;;;47.826894, -0.849337;Mayenne
Earl Picoti;Volailles / Oeufs;;;La Bouillonnaie;;44540;;VALLONS-DE-L'ERDRE;;44180;47.5407168;-1.2200132;;;02 41 92 83 27;;earl.picoti@gmail.com;;;;;;Agriculture / horticulture / Pêche;Agriculture Biologique (AB);;;;;;;;;;;oui;;;;;;;;;;;;;;;;;;;;47.5407168, -1.2200132;Loire-Atlantique
Jacques Bodineau - éleveur bovin;Viande;;;La Galotiniere;LIRE;49530;;OREE D'ANJOU;;49069;47.315743;-1.171531;;06 72 05 96 85;;;;;;;;;Agriculture / horticulture / Pêche;Agriculture Biologique (AB);;;;;;;;;;;;;;;;;;;;;;;oui;02/01/2025||31/12/2025||||||||||||||||||||||||||||||||||||||||||||||||||||||||||||;;;;;;;47.315743, -1.171531;Maine-et-Loire
Les Serres Pinoises;Fruits / légumes,Plantes et fleurs,Produits du terroir (boutique);;;La Lande du Bourg;;44540;;LE PIN;;44124;47.5943055;-1.1369835;;06 77 68 34 85;;;lsp.lepin.44@gmail.com;https://www.les-serres-pinoises44.fr/;;;Facebook||https://www.facebook.com/les.serres.pinoises;;Agriculture / horticulture / Pêche;;;;;;;;;;;;oui;;;;;;;;;;;;oui;||||||||09:00||12:00||14:30||18:00||||||||||09:00||12:00||14:30||18:00||09:00||12:00||14:30||18:00||09:00||12:00||14:30||18:00||09:00||12:30||||||||||||;;;;;;;47.5943055, -1.1369835;Loire-Atlantique
LA CAVERNE AUX PLANTES;Plantes et fleurs;;;La Noe Guy;;44119;;GRANDCHAMP-DES-FONTAINES;;44066;47.372596;-1.597864;;;0228300254;;histoiredejardin@hotmail.fr;https://www.artopierrepaysage.fr/;;;Facebook||https://www.facebook.com/La-caverne-aux-plantes-112038413762450/;;Agriculture / horticulture / Pêche;;;;;;;;;;;;;;;;;;;;;;;;;;;;;;;;47.372596, -1.597864;Loire-Atlantique
GAEC Ô'Miel;Produits apicoles;;;La Promenade;;49430;;DURTAL;;49127;47.6577915;-0.2338751;;06 26 37 82 24;;;gaecomiel@gmail.com;;;;Facebook||https://www.facebook.com/gaecomiel/?locale=fr_FR;;Agro-alimentaire;;;non;;;;;Français;;;oui;oui;;;non;non;non;non;non;;Français;non;;oui;01/01/2025||31/12/2025||||||||||||||||||||||||||||||||||||||||||||||||||||||||||||;;;;oui;;Cartes bancaires,Chèques bancaires et postaux,Espèces;47.6577915, -0.2338751;Maine-et-Loire
LA FERME DU BAS VERGER;Viande;;;La Renourie;;44680;;SAINT-MARS-DE-COUTAIS;;44178;47.0922487;-1.7540925;;;;;;;;;;;Agro-alimentaire;Agriculture Biologique (AB);;;;;;;;;;;;;;;;;;;;;;;oui;;;;;;;;47.0922487, -1.7540925;Loire-Atlantique
Lemoine Maraîcher - Le Potager de Lili;Fruits / légumes,Produits cidricoles / Jus de fruit;;;La Signolais;;44350;;GUERANDE;;44069;47.3385;-2.44393;;;07 81 61 36 05;;contact@lepotagerdelili.fr;http://www.lepotagerdelili.fr;;;;;Agro-alimentaire;;;oui;;;;;;;;;;;;;;;;;;;;;;||||||||14:30||19:00||||||||||||||14:30||19:00||||||||||||||14:30||19:00||||||||||||||||||||;;;;;;Cartes bancaires,Chèques bancaires et postaux,Espèces;47.3385, -2.44393;Loire-Atlantique
Domaine du Quarteron;Vins;;;La Vasinière;BOUZILLE;49530;;OREE D'ANJOU;;49069;47.3507757;-1.130709;;;02 40 98 11 22;;domaine.quarteron@orange.fr;http://www.domaineduquarteron.com;;;;;Viticulture;;;;;;;;;;;;;;;;oui;;;;;;;;oui;;Domaine du Quarteron||02 40 98 11 22||;;;;;;47.3507757, -1.130709;Maine-et-Loire
GAEC Les Chèvres du bois Nozay;Fromage et produit laitier,Produits du terroir (boutique);;;Le Bois Nozay;;44410;;SAINT-LYPHARD;;44175;47.36917;-2.33068;;;06 98 42 67 62;;leschevresduboisnozay@gmail.com;;;;;;Agro-alimentaire;;;oui;;;;;;;;;;;;;;;;;;;;;;28/02/2025||20/12/2025||||||||||||||||||||||17:00||19:00||||||||||||||17:00||19:00||||||||||||||||||||;;;;;;Cartes bancaires,Chèques bancaires et postaux,Espèces;47.36917, -2.33068;Loire-Atlantique
La Ferme du Boisvreuil;;;;Le Boisvreuil;;44780;;MISSILLAC;;44098;47.50715;-2.20452;;06 08 97 27 87;02 99 90 87 11;;clairicor@orange.fr;;;;;;Agro-alimentaire;;;oui;;;;;;;;;;;;;;;;;;;;;;;;;;;;;47.50715, -2.20452;Loire-Atlantique
LA F’HERMAPHRODITE;Escargot;;;Le Chêne Chais;;44390;;CASSON;;44027;47.3906843;-1.5320865;;;;;isa.josse0973@gmail.com;www.la-fhermaphrodite.com;;;Facebook||https://www.facebook.com/lafhermaphrodite;;Agro-alimentaire;;;;;;;;;;;;;;;;;;;;oui;;;;;;;;;oui;;;47.3906843, -1.5320865;Loire-Atlantique
Romain Moreau viticulteur;Vins;;;Le Fief de Bel Air;LA VARENNE;49270;;OREE D'ANJOU;;49069;47.3326588;-1.2813515;;06 23 58 85 99;;;fiefdebelair@orange.fr;;;;Facebook||https://www.facebook.com/fiefdebelair/?ref=page_internal;;Viticulture;Agriculture Biologique (AB);;oui;;;;;Anglais;"Anjou Rouge;Cabernet d'Anjou;Coteaux d'Ancenis;Muscadet Coteaux de la Loire";oui;non;oui;;;;;;;;;;;;oui;02/01/2025||31/12/2025||||||||||||||||||||||||||||||||||||||||||||||||||||||||||||;;;;oui;;Cartes bancaires,Chèques bancaires et postaux,Espèces;47.3326588, -1.2813515;Maine-et-Loire
DOMAINE DU LANDREAU (MORIN);Vins;;;Le Landreau;;49750;;VAL-DU-LAYON;;49292;47.2851783;-0.6524395;;;02 41 78 30 41;;cmorin@domaine.du.landreau.com;http://www.domaine-du-landreau.com;;;;;Viticulture;;;;;;;;;;;;;;;;;;;;;;;;;;;;;;;;47.2851783, -0.6524395;Maine-et-Loire
Confitures et biscuits - Jennifer Bordelet;Biscuit,Confiture;;;Le Perron;;53300;;OISSEAU;;53170;48.3484893;-0.6434594;;06 68 10 80 05;;;jennifer.leroy.blsl@gmail.com;;;;Facebook||https://www.facebook.com/jennifer.leroy.946517;;Agro-alimentaire;;;;;;;;;;;;oui;;;;;;;;oui;;;;oui;01/01/2025||31/12/2025||Sur réservation||||||||||||||||||||||||||||||||||||||||||||||||||||||||||;;;;oui;;Cartes bancaires,Chèques bancaires et postaux,Espèces;48.3484893, -0.6434594;Mayenne
LES DÉLICES DU PETIT GUÉ;Produits du terroir (boutique);;;Le Petit Gué au Vé;;44320;;FROSSAY;;44061;47.21231;-1.91928;;06 62 17 14 58;;;berangere.pion@wanadoo.fr;http://lesdelicesdupetitgue.wixsite.com/lesdelicesdupetitgue;;;;;;;;;;;;;;;;;;;;;;;;;;;;;;01/01/2025||31/12/2025||||||||||||||||||||||||||||||17:00||19:00||||||||||||||||||||||||||||;;;;;;;47.21231, -1.91928;Loire-Atlantique
FAMILLE MAUDET-COUSIN;Foie gras,Produits du terroir (boutique),Rillettes,Viande;;;Le pinier;NUEIL-SUR-LAYON;49540;;LYS-HAUT-LAYON;;49373;47.142409;-0.479107;;06 77 51 56 19;02 41 59 40 62;;foiegrasmaudetcousin@hotmail.fr;http://www.foiegrasmaudetcousin.fr;;;;;Agriculture / horticulture / Pêche;Bienvenue à la Ferme;;;;;;;Anglais,Français;;;;oui;;;;;;;;;;;;oui;||||||||14:00||18:00||||||09:00||12:00||14:00||18:00||09:00||12:00||14:00||18:00||09:00||12:00||14:00||18:00||09:00||12:00||14:00||18:00||||||||||||||||;;;;oui;;Cartes bancaires,Chèques bancaires et postaux,Espèces;47.142409, -0.479107;Maine-et-Loire
Ferme le Champ Libre;Fruits / légumes;;;Le Point du Jour;;72240;;TENNIE;;72351;48.142121;-0.049868;;;;;lechamplibre@netcourrier.com;;;;Facebook||https://www.facebook.com/LeChampLibre.Maraichage/?ref=page_internal;;Agriculture / horticulture / Pêche;Agriculture Biologique (AB);;;;;;;;;;;;;;;;;;;;;;;non;;;||https://www.local.bio/le-point-du-jout/producteur/5ebe39162c76a2f4485e409e||||||;oui;oui;;Chèques bancaires et postaux,Espèces;48.142121, -0.049868;Sarthe
FERME DU PONT CAILLAUD;Fromage et produit laitier;;;Le Pont Caillaud;;44320;;SAINT-PERE-EN-RETZ;;44187;47.2239;-2.02104;;;06 31 56 16 67;;jeromeforest44@gmail.com;;;;;;Agro-alimentaire;Bienvenue à la Ferme;;;;;;;;;;;oui;;;;;;;;;;;;;01/01/2021||31/12/2021||||||||||||||09:00||12:00||||||09:00||12:00||||||09:00||12:00||||||09:00||12:00||||||09:00||12:00||||||||||||;;;;;;Chèques bancaires et postaux,Espèces;47.2239, -2.02104;Loire-Atlantique
Les Vergers du Pontonnet;Fromage et produit laitier,Fruits / légumes,Produits du terroir (boutique),Spiritueux,Viande,Volailles / Oeufs;;;Le Pontonnet;Tillières;49230;;SEVREMOINE;;49301;47.144385;-1.134747;;;02 41 30 17 91;;vergersdupontonnet@pontonnet.fr;https://www.lesvergers-du-pontonnet.fr/;;;Facebook||https://www.facebook.com/pages/category/Shopping---Retail/Les-Vergers-Du-Pontonnet-675091969366143/;;Agro-alimentaire;;;;;;;;;;oui;;;;;;;;;;;;;;oui;01/01/2025||31/12/2025||||||14:30||18:30||||||09:30||12:30||14:30||18:30||09:30||12:30||14:30||18:30||09:30||12:30||14:30||18:30||09:30||12:30||14:30||18:30||09:00||13:00||||||||||||;;;;;;Cartes bancaires,Chèques bancaires et postaux,Espèces,Tickets Restaurant;47.144385, -1.134747;Maine-et-Loire
VIGNOBLE DAVID FOURRIER;Vins;;;Les Moulins de Villeneuve;Martigné-Briand;49540;;TERRANJOU;;49086;47.2241512;-0.4464271;;06 24 38 73 77;02 41 67 22 07;;;http://www.viticulteur-martignebriand.fr;;;;;Viticulture;;;;;;;;;"Anjou Blanc;Anjou Rouge;Cabernet d'Anjou;Coteaux du Layon;Crémant de Loire;Rosé d'Anjou";;;;;;;;;;;;;;;;;;;;;;;47.2241512, -0.4464271;Maine-et-Loire
Beauproporc (Gaec Cheval Blanc);Viande;;;Lieu Dit la Billaudiere;209 La Billaudière;49110;;BEAUPREAU-EN-MAUGES;;49023;47.225825;-0.948103;;06 20 86 06 88;02 41 63 04 86;;beauproporc@orange.fr;;;;Facebook||https://m.facebook.com/pages/category/Shopping---Retail/GAEC-LE-Cheval-BLANC-1721768864577664/about/?locale2=fr_FR;;Agro-alimentaire;;;;;;;;;;;;oui;;;;;;;;;;;;oui;;CHEVALIER ||02 41 63 04 86||beauproporc@orange.fr;||https://www.beauproporc.fr/colis-de-porc/||||02 41 63 04 86||beauproporc@orange.fr;oui;oui;;Cartes bancaires,Espèces;47.225825, -0.948103;Maine-et-Loire
EARL Cussonneau Yannick;Viande,Volailles / Oeufs;;;Lieu Dit la Blanchardiere;BOUZILLE;49270;;OREE D'ANJOU;;49069;47.3247515;-1.0941524;;06 62 25 34 69;;;cussonneau.yannick@wanadoo.fr;;;;;;Agriculture / horticulture / Pêche;Haute valeur environnementale (HVE);;;;;;;;;non;;oui;;;;;;;;;;;;oui;02/01/2025||31/12/2025||||||||||||||||||||||||||||||||||||||||||||||||||||||||||||;;;;oui;;Chèques bancaires et postaux,Espèces;47.3247515, -1.0941524;Maine-et-Loire
GAEC DE LA THAU;Fromage et produit laitier;;;Lieu Dit les Rochettes;MONTJEAN-SUR-LOIRE;49570;;MAUGES-SUR-LOIRE;;49244;47.3746482;-0.9032047;;;06 64 93 03 52;;delathau@orange.fr;;;;Facebook||https://www.facebook.com/Gaec-de-la-Thau-108765007419376/;;Agro-alimentaire;;;;;;;;;;;;;;;;;;;;;;;;oui;;;;;;;;47.3746482, -0.9032047;Maine-et-Loire
FERME PAYSANNE LA VOIX VÉGÉTALE;Fruits / légumes;;;Lieu-dit Grésigné;Brion;49250;;LES BOIS D'ANJOU;;49138;47.4150871;-0.1528339;;07 70 37 71 77;;;lavoixvegetale@gmail.com;;;;Facebook||https://www.facebook.com/lavoixvegetale/;;Agriculture / horticulture / Pêche;;;;;;;;;;;;;;;;;;;;;;;;oui;;;;;;;;47.4150871, -0.1528339;Maine-et-Loire
L'OISELIÈRE - VENTE À LA FERME DE VOLAILLES ET BOEUFS FERMIERS DU MAINE;Elevage,Viande;;;Lieu-dit L'Oiselière;;72110;;COURCIVAL;;72102;48.24824;0.4082;;06 08 72 42 50;;;loiseliere72@gmail.com;;;;;;"Agriculture / horticulture / Pêche;Agro-alimentaire";;;;;;;;;;;;oui;;;;;;;;;;;;oui;;;;;;;;48.24824, 0.4082;Sarthe
VERGER DU VAL D'ERDRE;Fruits / légumes;;;Lieu-dit L'Onglée;;44390;;NORT-SUR-ERDRE;;44110;47.4486416;-1.4856594;;06 75 61 39 17;;;gboquien@hotmail.fr;;;;;;Agro-alimentaire;Agriculture Biologique (AB);;;;;;;;;;;;;;;;;;;;;;;;;;;;;;;47.4486416, -1.4856594;Loire-Atlantique
Ferme La Gazi;Elevage,Huile,Pain / Pâtisserie,Produits apicoles,Viande;;;Lieu-dit La Gazillardière;;44521;;COUFFE;;44048;47.3962362;-1.3014931;;;;;fermelagazi@gmail.com;http://app.cagette.net/group/15101;;;Facebook||https://www.facebook.com/fermelagazi/;;Agriculture / horticulture / Pêche;Agriculture Biologique (AB);;non;;;;;Français;;;;oui;;;;;;;;;Français;;"Proposition clientèle||SEMPDL044V519RGM;Proposition clientèle||SEMPDL044V519RGM";oui;;Ferme de la Gazi||||fermelagazi@gmail.com;;;oui;;Cartes bancaires,Chèques bancaires et postaux,Espèces;47.3962362, -1.3014931;Loire-Atlantique
MOHAIR DE L'ERDRE;Elevage,Laine;;;Lieu-dit La Pommeraie;;44390;;CASSON;;44027;47.38306;-1.57702;;06 66 41 69 99;;;moahairdelerdre@gmail.com;http://mohairdelerdre.comù;;;Facebook||https://www.facebook.com/mohairdelerdre.44,Instagram||https://www.instagram.com/Mohairdelerdre?fbclid=IwY2xjawIi4XFleHRuA2FlbQIxMAABHcyC3gDZ--CYL5d6FEKcaIVhQp6WNWLZrC0HfFcminhMNYq0M1ypqwW_YQ_aem_HLtL0IHBJjmwmKvok1ZrJA;;Artisanat / Art;;;;;;;;;;;;;;;;;;;;;;;;oui;;;;;;;;47.38306, -1.57702;Loire-Atlantique
LES CHAMPIGNONS DE FROID-FONDS;Fruits / légumes;;;Lieu-dit La Primaudière;;53170;;RUILLE-FROID-FONDS;;53193;47.89212;-0.60934;;07 72 16 22 77;;;margot.rivron@orange.fr;https://bit.ly/3Llfx9f;;;Facebook||https://www.facebook.com/ChampignonsFroidFonds/;;Agriculture / horticulture / Pêche;Bienvenue à la Ferme;;;;;;;;;;;;;;;;;;;;Français;;Proposition clientèle||HLOPDL053V508YCP;non;;;;;;;;47.89212, -0.60934;Mayenne
GAEC Chavrot;Fromage et produit laitier;;;Lieu-dit Le Plessis des Estronnets;;53410;;LE BOURGNEUF-LA-FORET;;53039;48.14297;-0.99254;;02 43 66 87 18;;;gaecchavrot53@gmail.com;;;;;;"Agriculture / horticulture / Pêche;Agro-alimentaire";;;;;;;;;;;;;;;;;;;;;;;;;;;;;;;;48.14297, -0.99254;Mayenne
VERGER FOURMOND LE PRESSOIR;Fruits / légumes,Produits cidricoles / Jus de fruit;;;Lieu-dit Le Pressoir;Saint-Fort;53200;;CHATEAU-GONTIER-SUR-MAYENNE;;53062;47.80638;-0.71171;;06 81 72 10 61;02 43 70 12 36;;fredericfourmond@wanadoo.fr;https://tinyurl.com/vergerfourmond;;;Facebook||https://www.facebook.com/verger.fourmond/;;Agriculture / horticulture / Pêche;Bienvenue à la Ferme;;;;;;;Français;;;;oui;;;;;;;;;;;;non;;;;;;;;47.80638, -0.71171;Mayenne
AU P'TIT VERGER;Confiture,Fruits / légumes;;;Mln A Tan;La ferme le Moulin à Tan;53440;;ARON;;53008;48.2929257;-0.5678851;;;06 31 44 69 66;;lepetitverger53@gmail.com;https://mayennebiosoleil.biocoop.net/producteurs-mayenne-bio-soleil/au-p-tit-verger-2990.html;;;;;Agriculture / horticulture / Pêche;;;;;;;;;;;;;;;;;;;;;;;;;;;;;;;;48.2929257, -0.5678851;Mayenne
DOMAINE DE BEL AIR;Vins;;;Route de Bel Air de Gauchoux;;44860;;SAINT-AIGNAN-GRANDLIEU;;44150;47.1404151;-1.6006181;;;02.51.70.80.80;;c.bouinjacquet@wanadoo.fr;www.domaine-de-bel-air.fr;;;;;Viticulture;;;;;;;;;;non;;;;;oui;oui;;;;;;;;;||||||||||||14:00||19:00||||||14:00||19:00||09:00||12:00||14:00||19:00||09:00||12:00||14:00||19:00||09:00||||||19:00||09:00||12:00||14:00||19:00||||||||;;;;;Tarif indiv. adulte||||||visite et dégustation;;47.1404151, -1.6006181;Loire-Atlantique
LES RUCHERS DE LA JOUANNE;Produits apicoles;;;Route de Ste Suzanne;;53150;;LIVET;;53134;48.106706;-0.4448541;;;02 43 90 78 83;;;;;;;;Agriculture / horticulture / Pêche;;;;;;;;;;;;oui;;;;;;;;;;;;oui;;;;;;;;48.106706, -0.4448541;Mayenne
Le Guérandais;;;;Route des Marais Salants;Pradel;44350;;GUERANDE;;44069;47.31647;-2.45212;;06 07 03 02 02;02 40 62 01 25;;contact@leguerandais.com;http://www.leguerandais.fr;;;;;Activités de la mer;;;oui;;;;;;;;;;;;;;;;;;;;;;;;;;;;;47.31647, -2.45212;Loire-Atlantique
Brasserie Les Deux Brunes;Bières;;;Rue des Ammonites;;49260;;MONTREUIL-BELLAY;;49215;47.122562;-0.138973;;;06 43 13 11 94;;lesdeuxbrunes49@gmail.com;https://www.instagram.com/microbrasserielesdeuxbrunes/;;;Facebook||https://www.facebook.com/profile.php?id=100086513917881,Instagram||https://www.instagram.com/microbrasserielesdeuxbrunes/;;Agro-alimentaire;Agriculture Biologique (AB);;;;;;;Anglais,Français;;;;oui;;;;;;;;;;;;;01/01/2024||31/12/2024||Pour connaitre le détail, contacter l'établissement.||||||||||||||||||||||||||||||||||||||||||||||||||||||||||,02/01/2025||31/12/2025||Pour connaitre le détail, contacter l'établissement.||||||||||||||||||||||||||||||||||||||||||||||||||||||||||;;;;non;Tarif indiv. adulte||7,00||7,00||;Cartes bancaires,Chèques bancaires et postaux,Espèces;47.122562, -0.138973;Maine-et-Loire
Marché au champ de Montflours;Bières,Cosmétique,Fromage et produit laitier,Pain / Pâtisserie,Produits apicoles,Produits du terroir (boutique),Volailles / Oeufs;;;Rue du Casino;;53240;;MONTFLOURS;;53156;48.17123;-0.73254;;0676902805;;;anim.montflours@gmail.com;;;;;;Agro-alimentaire;;;;;;;;;;;;;;;;;;;;;;;;oui;||||||||||||||||||||||||||||||||||||||||17:30||19:30||||||||||||||||||||;;;;;;;48.17123, -0.73254;Mayenne
BASE DE MAINTENANCE DU PARC ÉOLIEN EN MER DE SAINT-NAZAIRE;;;;Rue Ropert;Terre-plein de Garlahy;44420;;LA TURBALLE;;44211;47.34754;-2.51098;;;;;visites.saintnazaire@edf-re.fr;https://parc-eolien-en-mer-de-saint-nazaire.fr/a-la-decouverte-du-parc/;;;;;Industrie;Visitez nos entreprises;;;;;;;;;;;;;;;;;;;;;;;;;;;;;;;47.34754, -2.51098;Loire-Atlantique
Les Délices Gildasiens;;;;ZA la Croix Daniel;;44530;;SAINT-GILDAS-DES-BOIS;;44161;47.51956;-2.0453;;06 08 47 30 82;02 40 01 46 27;;jy.pierre@jaimelagalette.com;;;;;;;;;oui;;;;;;;;;;;;;;;;;;;;;;;;;;;;;47.51956, -2.0453;Loire-Atlantique
LE PALLOUIS;Volailles / Oeufs;;7 Chemin du Pallouis;;;53540;;SAINT-POIX;;53250;47.9682499;-1.0497388;;;02 43 98 96 16;;;;;;;;Agriculture / horticulture / Pêche;;;;;;;;Français;;;;;;;;;;;;;;;;oui;||||||||||||||||||||||||14:00||18:30||||||09:00||12:00||14:00||18:30||09:00||12:00||||||09:00||12:00||||||||||||;||02 43 98 96 16||;;;;;;47.9682499, -1.0497388;Mayenne
La Ruche qui dit Oui ! Drive Producteurs;Fromage et produit laitier,Fruits / légumes,Pain / Pâtisserie,Produits apicoles,Produits cidricoles / Jus de fruit,Produits du terroir (boutique),Sel,Spiritueux,Viande,Vins;;Pradel;Pergochat;Impasse de la Saline Verte;44350;;GUERANDE;;44069;47.32065;-2.4536;;07 82 40 70 77;02 40 45 67 74;;support@laruchequiditoui.fr;http://laruchequiditoui.fr/fr/assemblies/1596;;;;;Activités de la mer;;;oui;;;;;;;;;;;;;;;;;;;;;;;;;;;;Cartes bancaires;47.32065, -2.4536;Loire-Atlantique
Saint M'Art - Boutique de créateurs;Bières,Bijou,Biscuit,Céramique, faïence, émail,Confiture,Cosmétique,Décoration d'intérieur,Epices / Condiment,Maroquinerie,Poterie,Produits apicoles,Produits du terroir (boutique),Sculpture,Textile / Habillement / Chaussure,Travail du bois;1 rue de l'industrie;Saint-Mars-la-Jaille;;;44540;;VALLONS-DE-L'ERDRE;;44180;47.5238582;-1.1847525;;;;;saintmartboutique@gmail.com;https://saintmartboutique.wixsite.com/home;;;Facebook||https://www.facebook.com/saintmartboutique,Instagram||https://www.instagram.com/saint_m_art;;"Artisanat / Art;Loisirs et activités";;;;;;;;Français;;;;;;;;;;;;;;;"Partenariat||DEGPDL044V50HIHT;Partenariat||DEGPDL044V50HII9";oui;01/01/2025||31/12/2025||||||||||||||09:30||12:30||||||09:30||12:30||14:30||18:00||||||||||09:30||12:30||14:30||18:00||09:30||12:30||14:30||18:00||||||||;;;;oui;;Cartes bancaires,Espèces;47.5238582, -1.1847525;Loire-Atlantique
LES DOUCEURS DU SAOSNOIS;Confiserie / chocolat;10 rue principale;;;;72600;;MAROLLETTE;;72188;48.36945;0.35154;;06 51 59 70 31;;;lesdouceursdusaosnois@gmail.com;;;;;;Agro-alimentaire;;;;;;;;;;;;;;;;;;;;;;;;;;;;;;;;48.36945, 0.35154;Sarthe
GAEC DU PETIT POIRIER;Vins;12 LE POIRIER;;;;44310;;LA LIMOUZINIERE;;44083;46.993419;-1.59627;;;06 82 85 51 56;;gaecdupetitpoirier@gmail.com;;;;;;Viticulture;;;;;;;;;"Gros Plant du Pays Nantais;Muscadet;Muscadet Côtes de Grandlieu";;;;;;;;;;;;;;;oui;||||Du lundi au vendredi de 17h à 19h||||||||||||||||||||||||||||||||||||||||||||||||||||||||||,||||samedi 9h à 12h||||||||||||||||||||||||||||||||||||||||||||||||||||||||||;GAEC DU PETIT POIRIER||06 82 85 51 56||gaecdupetitpoirier@gmail.com;;;;;;46.993419, -1.59627;Loire-Atlantique
DOMAINE DE CLAYOU;Vins;18 bis rue du Pont Barré;;;Saint Lambert du Lattay;49750;;VAL-DU-LAYON;;49292;47.301692;-0.634216;;;02 41 78 44 44;02 41 78 48 52;contact@domainedeclayou.fr;http://www.domainedeclayou.fr/contact/;;;;;Viticulture;Terra Vitis;;;;;;;;;;;;;;;;;;;;;;;;;;;;;;;47.301692, -0.634216;Maine-et-Loire
Juliette Dutheil;Décoration d'intérieur;205 la Pasquerie;;;;44440;;TRANS-SUR-ERDRE;;44207;47.4569333;-1.3573071;;06 88 89 20 29;;;juliette.dutheil@chantourne.fr;www.juliettedutheil.fr;;;Facebook||https://www.facebook.com/J.DUTHEILartiste,Instagram||https://www.instagram.com/juliettedutheil/;;Artisanat / Art;;;;;;;;;;;;;;;;;;;;;;;;;;;;;;;;47.4569333, -1.3573071;Loire-Atlantique
DOMAINE DE BRIZÉ;Vins;36, Rue des Jonchères;Cornu;;;49540;;TERRANJOU;;49086;47.232795;-0.4299879;;;02 41 59 43 35;02 41 59 66 90;info@domainedebrize.fr;http://www.domainedebrize.fr;;;;;Viticulture;Terra Vitis;;;;;;;;;;;;;;;;;;;;;;;;;;;;;;;47.232795, -0.4299879;Maine-et-Loire
L'Atelier de Ludo;Métal,Sculpture;49 rue Charles Douglas;;;;72220;;MARIGNE-LAILLE;;72187;47.8186;0.34001;;07 86 91 66 52;;;latelier-de-ludo@orange.fr;https://sites.google.com/view/latelierdeludo/accueil?fbclid=IwAR2zG4KCsESPAHPb3U2ogJRL76k5_VdYMawjSgom7R78pjhzD-LcFjUoDBY;;;Facebook||https://www.facebook.com/latelierdeludo;;Artisanat / Art;Métiers d'art;;;;;;;;;non;non;oui;;;;;;;;oui;Français;oui;;;;;;;oui;;Cartes bancaires,Chèques bancaires et postaux;47.8186, 0.34001;Sarthe
LA FERME DES HAUTES GRANGES;Produits du terroir (boutique),Viande;5 Grande Lande;;;;44140;;MONTBERT;;44102;47.057771;-1.487902;;;06 84 67 01 09;;ferme.sophie.bachelier@wanadoo.fr;http://www.fermedeshautesgranges.fr;;;;;;Bienvenue à la Ferme;;;;;;;;;;;;;;;;;;;;;;;oui;;;;;;;;47.057771, -1.487902;Loire-Atlantique
FRANÇOIS BEZARD - PEINTURE;Peinture;5 rue du Dr Olivier;;;;72120;;SAINT-CALAIS;;72269;47.920883;0.744722;;07 82 03 35 35;;;nicole.bezard@free.fr;;;;;;Artisanat / Art;;;;;;;;;;;;;;;;;;;;;;;;;;;;;;;;47.920883, 0.744722;Sarthe
FERME APICOLE DE BELLIGNE;Produits apicoles;Belligné;;;;49380;;BELLEVIGNE-EN-LAYON;;49345;47.294365;-0.523355;;;02 41 54 17 59;;blatier.andre.anita@tele2.fr;;;;;;Agriculture / horticulture / Pêche;Agriculture Biologique (AB);;;;;;;;;;;;;;;;;;;;;;;;;;;;;;;47.294365, -0.523355;Maine-et-Loire
La Ferme Les Trois Chênes;Fromage et produit laitier;EARL Les Trois Chênes;;5 La Papaudière;LE LONGERON;49230;;SEVREMOINE;;49301;47.031386;-1.053282;;06 38 23 86 06;;;lestroischenes49@gmail.com;www.fermedestroischenes.fr;;;;;Agriculture / horticulture / Pêche;;;;;;;;;;;;;;;;;;;;;;;;oui;;Véronique GUINAUDEAU||06 38 23 86 06||lestroischenes49@gmail.com;;;;;;47.031386, -1.053282;Maine-et-Loire
Les Fromages De Sophie;Fromage et produit laitier,Produits apicoles,Produits du terroir (boutique);L'Apicole de Sophie;;;Le Boulay;72300;;SOUVIGNE-SUR-SARTHE;;72343;47.913941;-0.397974;;06 46 30 25 12;;;lesfromagesdesophie@hotmail.fr;;;;Facebook||https://www.facebook.com/lesfromagesdesophie72;;"Agriculture / horticulture / Pêche;Agro-alimentaire";Bienvenue à la Ferme;;;;;;;Anglais,Français;;;;;;;;;;;;;;;;oui;01/03/2025||31/12/2025||sur réservation||||||||||||||||||||||||||||||||||||||||||||||||||||||||||;;;;oui;;Cartes bancaires,Espèces;47.913941, -0.397974;Sarthe
Ferme de la Corbinière;Viande;La corbinière;;;;53210;;SOULGE-SUR-OUETTE;;53262;48.065072;-0.559316;;;02 43 02 32 66;;jerome.piron689@laposte.net;https://www.bienvenue-a-la-ferme.com/pays-de-la-loire/mayenne/soulge-sur-ouette/ferme/ferme-de-la-corbiniere/155785?lieu=Soulge+sur+ouette+-+53210+%2528Mayenne%2529&lieu_id=25308&lieu_distance=25&chez;;;Facebook||https://www.facebook.com/Bienvenuealaferme/;;Agro-alimentaire;Bienvenue à la Ferme;;;;;;;;;;;oui;;;;;;;;;;;;oui;;;;;;;;48.065072, -0.559316;Mayenne
EARL DU TILLEUL;Produits cidricoles / Jus de fruit;La Fontaine;;;;72310;;BESSE-SUR-BRAYE;;72035;47.83321;0.75015;;;02 43 35 59 57;;;;;;;;Agro-alimentaire;;;;;;;;;;;;;;;;;;;;;;;;;;;;;;;;47.83321, 0.75015;Sarthe
FERME DE LA FOURCHE;Volailles / Oeufs;La Fourche;;;;72440;;MAISONCELLES;;72178;47.93585;0.5709;;06 98 68 62 24;02 43 63 03 67;;liatas6@yahoo.fr;www.lafermedelafourche.wordpress.com;;;;;Agro-alimentaire;Agriculture Biologique (AB);;;;;;;;;;;;;;;;;;;;;;;;;;;;;;;47.93585, 0.5709;Sarthe
La Chèvre-rie;Fromage et produit laitier;La Grande Borde;;;;72320;;THELIGNY;;72353;48.175404;0.800529;;;06 33 00 89 24;;coraliehabert@laposte.net;;;;;;Agriculture / horticulture / Pêche;Bienvenue à la Ferme;;;;;;;Français;;;;;;;;;;;;;;;;;||||||||||||||||||||||||||||||||15:00||19:00||||||15:00||19:00||||||09:00||12:00||||||||||||;;;;;;;48.175404, 0.800529;Sarthe
Du champ à l'assiette;Fruits / légumes;La Haute Jeulinière;;;;72440;;TRESSON;;72361;47.902769;0.571871;;06 87 72 55 83;;;duchampalassiette72@gmail.com;https://www.local.bio/du-champ-a-l-assiette;;;;;"Agriculture / horticulture / Pêche;Agro-alimentaire";;;;;;;;;;;;;;;;;;;;;;;;;||||||||||||||||||||||||||||||||||||||||||||16:30||19:00||09:00||12:00||||||||||||;;;;;;;47.902769, 0.571871;Sarthe
La Hunellière;Viande;La hunellière;;;;53410;;SAINT-OUEN-DES-TOITS;;53243;48.144;-0.914;;06 81 28 50 69;;;laurence.bourdin4@gmail.com;;;;;;Agro-alimentaire;;;;;;;;;;;;;;;;;;;;;;;;oui;;;;;;;;48.144, -0.914;Mayenne
DOMAINE DE LA BELLE ANGEVINE;Vins;la promenade;;;;49750;;BEAULIEU-SUR-LAYON;;49022;47.3166911;-0.6042211;;;02 41 78 34 86;;labelleangevine@wanadoo.fr;http://www.labelleangevine.monsite-orange.fr;;;;;Viticulture;;;;;;;;;;;;;;;;;;;;;;;;;;;;;;;;47.3166911, -0.6042211;Maine-et-Loire
DOMAINE DE LA TOUCHE BLANCHE;Vins;La Touche;;;;49540;;TERRANJOU;;49086;47.2122843;-0.4563714;;;02 41 59 65 38;;earlrochais@orange.fr;;;;;;Viticulture;;;;;;;;;;;;;;;;;;;;;;;;;;;;;;;;47.2122843, -0.4563714;Maine-et-Loire
EARL LE PUITS;Viande,Volailles / Oeufs;Le Puits;;;Champ sur Layon;49380;;BELLEVIGNE-EN-LAYON;;49345;47.266427;-0.576541;;;02 41 78 35 72;;;;;;;;Agriculture / horticulture / Pêche;Agriculture Biologique (AB);;;;;;;;;;;;;;;;;;;;;;;;;;;;;;;47.266427, -0.576541;Maine-et-Loire
LES LÉGUMES DU PÂTIS;Fruits / légumes;Le Pâtis;;;;72320;;BERFAY;;72032;47.99325;0.76418;;06 72 82 83 80;;;angeledaveau@hotmail.fr;https://www.local.bio/producteur/5c7fe9c007217b53e4c7aef5;;;;;Agro-alimentaire;Agriculture Biologique (AB);;;;;;;;;;;;;;;;;;;;;;;;;;;;;;;47.99325, 0.76418;Sarthe
Le Jardin des Quatre Poches;Fruits / légumes;Les Basses Quatre Poches;;;;72440;;TRESSON;;72361;47.90348;0.57453;;06 52 12 34 98;;;lejardindesquatrepoches@lilo.org;www.le-jardin-des-quatre-poches.fr;;;;;Agriculture / horticulture / Pêche;Agriculture Biologique (AB);;;;;;;;;;;;;;;;;;;;;;;;;;;;;;;47.90348, 0.57453;Sarthe
DOMAINE DES GAUMONTS;Vins;Les Gaumonts;;;;49380;;BELLEVIGNE-EN-LAYON;;49345;47.267202;-0.503547;;;02 41 54 32 31;02 41 54 41 14;vignoble-rahard@orange.fr;http://www.vignoble-rahard.fr;;;;;Viticulture;;;;;;;;;;;;;;;;;;;;;;;;;;;;;;;;47.267202, -0.503547;Maine-et-Loire
Isabelle Sourbès Maroquinerie;Maroquinerie;Lieu dit La Gazouère;;;;49123;;INGRANDES-LE FRESNE SUR LOIRE;;49160;47.4037365;-0.9225048;;06 21 31 35 38;;;isabellesourbes@gmail.com;https://isabelle-sourbes.com/;;;;;Artisanat / Art;Métiers d'art;;;;;;;;;;;;;;;;oui;oui;;;;oui;;oui;01/01/2025||31/12/2025||||||09:00||12:00||14:00||18:00||09:00||12:00||14:00||18:00||09:00||12:00||14:00||18:00||09:00||12:00||14:00||18:00||09:00||12:00||14:00||18:00||||||||||||||||;;;;oui;;Cartes bancaires,Espèces,Virement;47.4037365, -0.9225048;Maine-et-Loire
Alain Perrot, producteur de miel;Produits apicoles;Rucher de Gueteloup;;;;72320;;BERFAY;;72032;48.0108539;0.751493;;0683249711;;;ilovebees@outlook.fr;;;;;;Agro-alimentaire;;;;;;;;;;;;;;;;;;;;;;;;;;;;;;;;48.0108539, 0.751493;Sarthe
DOMAINE CESBRON;Vins;ZA du Gué Menois;;;;49750;;VAL-DU-LAYON;;49292;47.301692;-0.634216;;;02 41 78 30 84;;info@domaine-cesbron.fr;http://www.domaine-cesbron.fr;;;;;Viticulture;;;;;;;;;;;;;;;;;;;;;;;;;;;;;;;;47.301692, -0.634216;Maine-et-Loire
Cave et bar à Vins Le Vintage;Bières,Spiritueux,Vins;;;1 Place Thiers;;72270;;MALICORNE-SUR-SARTHE;;72179;47.814085;-0.0879024;;;02 43 96 34 83;;vintage3@orange.fr;;;;Facebook||https://www.facebook.com/vintagemalicorne,Instagram||https://www.instagram.com/vintage_malicorne/;;Agro-alimentaire;;;;;;;1;;;;oui;;;;;;;;;;;;;;01/01/2025||31/12/2025||||Lundi, mercredi et dimanche||||||||||10:00||13:00||15:00||21:00||||||||||10:00||13:00||15:00||21:00||10:00||13:00||15:00||21:00||10:00||13:00||15:00||21:00||||||||;;;;;;;47.814085, -0.0879024;Sarthe
Domaine de la Fée du Lys;Vins;;;13 Rue du Layon;Tigné;49540;LYS-HAUT-LAYON;LYS-HAUT-LAYON;;49373;47.20235;-0.42917;;;02 41 59 67 58;;domainedelafeedulys@hotmail.com;http://domainedelafeedulys.com/;;;Facebook||https://www.facebook.com/Domaine-de-la-F%C3%A9e-du-Lys-345807325841553;;Viticulture;Haute valeur environnementale (HVE);;oui;;;15;;Français;"Anjou Blanc;Anjou Fines Bulles;Anjou Rouge;Cabernet d'Anjou;Coteaux du Layon;Crémant de Loire;Rosé d'Anjou;Rosé de Loire";;;;;;;;;;;;Français;;;;01/01/2024||31/12/2025||||||10:00||18:00||||||10:00||18:00||||||10:00||18:00||||||10:00||18:00||||||10:00||18:00||||||10:00||18:00||||||||||||;;;;;;Cartes bancaires,Chèques bancaires et postaux,Espèces;47.20235, -0.42917;Maine-et-Loire
Clos des Cordeliers;Vins;;;Champigny;;49400;;SOUZAY-CHAMPIGNY;;49341;47.206689;-0.026666;;;02 41 52 95 48;;domaine-ratron@clos-des-cordeliers.com;http://www.clos-des-cordeliers.com;;;Facebook||https://www.facebook.com/Domaine-RATRON-569108313143504/,Google+||https://maps.google.com/?cid=10746627892267850006,Tripadvisor||https://www.tripadvisor.fr/Attraction_Review-g1236224-d7129798-Reviews-Clos_des_Cordeliers_Domaine_Ratron-Souzay_Champigny_Maine_et_Loire_Pays_de_la_Lo.html,Instagram||https://www.instagram.com/closdescordeliers/;;Viticulture;Caves touristiques excellence,Caves touristiques vignoble de Loire,Haute valeur environnementale (HVE),Vigneron Indépendant,Vignobles et découvertes;;oui;;;15;;Anglais,Français;"Crémant de Loire;Saumur;Saumur Blanc;Saumur Champigny;Saumur Rosé";;;oui;;;oui;oui;;;;oui;;;;;01/11/2024||31/12/2024||Pour connaitre le détail, contacter l'établissement.||||||||||||||||||||||||||||||||||||||||||||||||||||||||||,01/01/2025||31/01/2025||Pour connaitre le détail, contacter l'établissement.||||||||||||||||||||||||||||||||||||||||||||||||||||||||||,01/02/2025||31/03/2025||Pour connaitre le détail, contacter l'établissement.||||||||||||||||||||||||||||||||||||||||||||||||||||||||||,01/04/2025||31/10/2025||Pour connaitre le détail, contacter l'établissement.||||||||||||||||||||||||||||||||||||||||||||||||||||||||||,01/11/2025||31/12/2025||Pour connaitre le détail, contacter l'établissement.||||||||||||||||||||||||||||||||||||||||||||||||||||||||||;;||https://boutique.ot-saumur.fr/billetteries-visites/vignoble-et-degustation/visite-du-chai-et-des-caves-souterraines-au-clos-des-cordeliers||||||;oui;oui;;Cartes bancaires,Espèces,Virement;47.206689, -0.026666;Maine-et-Loire
Maison des Vins d'Anjou-Angers-Saumur;Vins;;;5 bis, place Kennedy;;49100;ANGERS;ANGERS;;49007;47.46982;-0.55792;;;07 86 12 95 77;;mdvins.angers@gmail.com;;;;Facebook||https://www.facebook.com/maisonsdesvinsdanjouetdesaumur,Instagram||https://www.instagram.com/vins_anjou_saumur/;;Viticulture;Vignobles et découvertes;;oui;;;30;10;Anglais,Français;"Anjou Blanc;Anjou Fines Bulles;Anjou Gamay;Anjou Rouge;Anjou Villages;Anjou Villages Brissac;Bonnezeaux;Cabernet d'Anjou;Coteaux de l'Aubance;Coteaux du Layon;Coteaux du Layon avec dénomination géographique;Coteaux du Layon Premier Cru Chaume;Crémant de Loire;Quarts de Chaume grand cru;Rosé d'Anjou;Rosé de Loire;Savennières;Savennières Roche aux Moines";;;;;1h30;oui;;;;;;Français,Anglais;oui;;;01/01/2024||24/02/2024||||||||||||||11:00||13:30||14:30||19:00||11:00||13:30||14:30||19:00||11:00||13:30||14:30||19:00||11:00||13:30||14:30||19:00||11:00||13:30||14:30||19:00||||||||,02/03/2024||02/03/2024||||||||||||||||||||||||||||||||||||||||||||||11:00||13:30||14:30||18:00||||||||,05/03/2024||26/10/2024||||||||||||||11:00||13:30||14:30||19:30||11:00||13:30||14:30||19:30||11:00||13:30||14:30||19:30||11:00||13:30||14:30||19:30||11:00||13:30||14:30||19:30||||||||,10/04/2025||31/12/2025||||||||||||||11:00||13:30||14:30||19:00||11:00||13:30||14:30||19:00||11:00||13:30||14:30||19:00||11:00||13:30||14:30||19:00||11:00||13:30||14:30||19:00||||||||;;;;;;Cartes bancaires,Chèques bancaires et postaux,Espèces;47.46982, -0.55792;Maine-et-Loire
FERME AUBERGE - LA TOUCHE;Produits du terroir (boutique),Rillettes,Volailles / Oeufs;;;;801 La Touche, le Tremblay;49520;;OMBRÉE D'ANJOU;;49248;47.681355;-1.02088;;;02 41 94 22 45;;fermelatouche@gmail.com;http://fermeaubergelatouche.com;;;Facebook||https://www.facebook.com/fermeaubergelatouche/;;Agriculture / horticulture / Pêche;Bienvenue à la Ferme;;oui;;non;;;Français;;non;non;oui;;;non;non;non;non;non;non;Français;non;Proposition clientèle||ITIPDL049V50C4JR;oui;;;;;;;Cartes bancaires,Chèques bancaires et postaux,Espèces;47.681355, -1.02088;Maine-et-Loire
GAEC du Petit Pont;Bétail,Elevage,Viande;;;Le Petit Pont;;49140;;MONTREUIL-SUR-LOIR;;49216;47.588218;-0.3689779;;;02 41 76 63 71;;gaecdupetitpont@gmail.com;https://www.viande-limousine-bio49.com/;;;;;"Agriculture / horticulture / Pêche;Agro-alimentaire";Agriculture Biologique (AB);;oui;;non;;;Français;;non;;oui;;;;;;;;;Français;;;oui;;;;;oui;;Cartes bancaires,Espèces;47.588218, -0.3689779;Maine-et-Loire
ATELIER - BOIS;Travail du bois;;;;855 La Basse-Beucherie;53160;;BAIS;;53016;48.2420179;-0.3774131;;06 07 86 31 71;;;audetourdesbois@gmail.com;;https://www.facebook.com/100057386442965/videos/463428085752107;"https://www.facebook.com/100057386442965/videos/463428085752107<span data-champcoderef="" "" id=""91aa2680-31ec-4342-9ac8-e0883d7f44d3"" type=""champSimple""><br /></span>";Facebook||https://www.facebook.com/Au-D%C3%A9tour-des-Bois-121724264633628;;Artisanat / Art;Métiers d'art;;non;;non;2;1;Français;;;;;;;non;non;non;non;non;non;Français;non;;non;;Mareau||06 07 86 31 71||audetourdesbois@gmail.com;;;;;Chèques bancaires et postaux,Espèces;48.2420179, -0.3774131;Mayenne
DAVID LÉRIDON;Fromage et produit laitier;;;;Glatigné, Nyoiseau;49500;;SEGRÉ-EN-ANJOU BLEU;;49331;47.718026;-0.875257;;06 28 28 86 83;;;leridon.david@orange.fr;;;;;;Agriculture / horticulture / Pêche;;;oui;;oui;;;Français;;;;;;;;;;;;;;;;oui;;Monsieur Léridon David||06 28 28 86 83||leridon.david@orange.fr;;;;;;47.718026, -0.875257;Maine-et-Loire
CHRISTINE ET BENOIT FOUCHER - LA BEURRERIE;Viande;;;;La Beurrerie, Segré;49500;;SEGRÉ-EN-ANJOU BLEU;;49331;47.700714;-0.856971;;06 77 70 60 63;02 41 61 50 73;;labeurrerie@nordnet.fr;http://www.fermedelabeurrerie.fr;;;Facebook||https://www.facebook.com/La-Beurrerie-465404220158989/;;Agriculture / horticulture / Pêche;;;oui;;oui;;;Français;;non;;;;;;;;;;;;;;oui;;Madame et Monsieur Foucher ||06 77 70 60 63||labeurrerie@nordnet.fr;;;oui;;;47.700714, -0.856971;Maine-et-Loire
LE PRÉ DE CHEZ VOUS;Fruits / légumes;;;;La Gasneraie, Nyoiseau;49500;;SEGRE-EN-ANJOU BLEU;;49331;47.7225687;-0.9198507;;;;;alexis.pedrot44@gmail.com;;;;;;Agriculture / horticulture / Pêche;Agriculture Biologique (AB);;oui;;oui;;;Français;;;;;;;;;;;;;;;;oui;;Le pré de chez vous||06 38 33 66 16||alexis.pedrot@gmail.com;;;;;;47.7225687, -0.9198507;Maine-et-Loire
LE MOULIN D'IRÉ - GAEC DE LA PAILLARDIÈRE;Pain / Pâtisserie;;;;La Paillardière, le Bourg-d'Iré;49520;;SEGRÉ-EN-ANJOU BLEU;;49331;47.6484362;-0.9938187;;07 68 94 19 57;;;jeanpaul.jolivel@hotmail.fr;;;;;;Agriculture / horticulture / Pêche;Agriculture Biologique (AB);;oui;;oui;;;Français;;;;;;;;;;;;;;;;oui;;Madame et Monsieur Jolivel||07 68 94 19 57||jeanpaul.jolivel@hotmail.fr;;;;;;47.6484362, -0.9938187;Maine-et-Loire
LE CHAMP DES TREULS, MARAÎCHAGE BIOLOGIQUE;Fruits / légumes;;;;La Treulerie, Châtelais;49500;;SEGRÉ-EN-ANJOU BLEU;;49331;47.7901491;-0.9282108;;06 28 28 35 20;02 41 26 65 92;;lechampdestreuls@gmail.com;https://lechampdestreuls.jimdofree.com/;;;Facebook||https://www.facebook.com/Le-Champ-des-Treuls-Maraichage-biologique-212256605616224/;;Agriculture / horticulture / Pêche;Agriculture Biologique (AB);;oui;;oui;;;Français;;;;;;;;;;;;;;;;oui;;;||http://www.solicibio.fr/||||02 41 26 65 92||lechampdestreuls@gmail.com;oui;;;;47.7901491, -0.9282108;Maine-et-Loire
CYRIL ET JÉRÔME COCHARD - GAEC DU BOIS FLEURY;Fromage et produit laitier;;;;Le Bois Fleury, Champigné;49330;;LES HAUTS-D'ANJOU;;49080;47.673063;-0.5781516;;06 17 43 67 63;;;bois.fleury@lilo.org;;;;;;Agriculture / horticulture / Pêche;Agriculture Biologique (AB);;oui;;oui;;;Français;;;;;;;;;;;;;;;;oui;;GAEC du Bois Fleury||06 17 43 67 63||bois.fleury@lilo.org;;;;;;47.673063, -0.5781516;Maine-et-Loire
ANNE-MARIE ET EMMANUEL COUE;Viande;;;;Le Gastinais, Vern-d'Anjou;49220;;ERDRE-EN-ANJOU;;49367;47.5900499;-0.8743898;;06 23 53 08 08;02 41 61 19 20;;emmanuel.coue@wanadoo.fr;;;;Facebook||https://www.facebook.com/Emmanuel-Cou%C3%A9-Polyculture-et-%C3%89levage-113341860214443/;;Agriculture / horticulture / Pêche;;;oui;;oui;;;Français;;;;;;;;;;;;;;;;oui;;Madame et Monsieur Coué||06 23 53 08 08||emmanuel.coue@wanadoo.fr;;;;;;47.5900499, -0.8743898;Maine-et-Loire
EARL GAUDIN;Pain / Pâtisserie,Viande,Volailles / Oeufs;;;;Le Petit Montergon, Brain-sur-Longuenée;49220;;ERDRE-EN-ANJOU;;49367;47.573523;-0.743397;;;02 41 95 20 77;;contact@ferme-du-petit-montergon.fr;http://www.ferme-du-petit-montergon.fr;;;Facebook||https://www.facebook.com/Ferme-Du-Petit-Montergon-373013696447221/;;Agriculture / horticulture / Pêche;Agriculture Biologique (AB);;oui;;oui;;;Français;;;;oui;;;;;;;;;;;;oui;;;||||||02 41 95 20 77||contact@ferme-du-petit-montergon.fr;non;;;;47.573523, -0.743397;Maine-et-Loire
La Fromagerie du Rocher;Fromage et produit laitier;;;;Le Rocher;72190;;NEUVILLE-SUR-SARTHE;;72217;48.0674255;0.231129;;06 25 48 10 94;;;;;;;Facebook||https://www.facebook.com/Fromage-de-Ch%C3%A8vreEARL-du-Rocher-540370536105770/;;Agriculture / horticulture / Pêche;;;;;oui;;;;;;;oui;;;;;;;;;;;;oui;;;;;oui;;;48.0674255, 0.231129;Sarthe
VINCENT GALISSON - LA CHOUETTE FERME;Viande;;;;Luctaie;49370;;BECON-LES-GRANITS;;49026;47.5185327;-0.8262214;;06 86 53 09 44;;;lachouetteferme@gmail.com;http://www.lachouetteferme.fr;;;Facebook||https://www.facebook.com/La-Chouette-Ferme-113541873674189/?tn-str=k*F;;Agriculture / horticulture / Pêche;Agriculture Biologique (AB),Bienvenue à la Ferme;;oui;;oui;;;Français;;;;;;;;;;;;;;;;oui;;Monsieur Galisson Vincent||06 86 53 09 44||lachouetteferme@gmail.com;;;;;Chèques bancaires et postaux,Espèces;47.5185327, -0.8262214;Maine-et-Loire
Atelier Clémentine Ceramic;Poterie;;;10 Beauregard;;44350;;GUERANDE;;44069;47.30811;-2.40582;;;07 63 44 38 70;;clementineceramic@gmail.com;http://www.clementineceramic.com;;;;;Artisanat / Art;;;oui;;oui;;;;;;;;;;;;;;;;;;;;;;;;;;;47.30811, -2.40582;Loire-Atlantique
EARL La Fourmi;Fruits / légumes;;;1413 route de Soucelles;La Fourmillère;49125;;TIERCE;;49347;47.5973571;-0.4549287;;06 19 61 61 64;;;earllafourmi@free.fr;;;;;;Agriculture / horticulture / Pêche;Agriculture Biologique (AB);;oui;;oui;;;Français;;;;oui;;;;;;;;;Français;;;oui;;;;;oui;;;47.5973571, -0.4549287;Maine-et-Loire
ROMAIN DEBAIN - BRASSERIE ALPACA;Bières;;;18 ter Rue de l'Hommeau;Sant-Martin-du-Bois;49500;;SEGRÉ-EN-ANJOU BLEU;;49331;47.7063545;-0.740269;;06 83 02 20 49;02 53 86 92 46;;brasserie.alpaca@gmail.com;http://www.brasseriealpaca.com;;;Facebook||https://www.facebook.com/brasseriealpaca/;;Agro-alimentaire;Agriculture Biologique (AB);;oui;;oui;;;Français;;;;;;;;;;;;;;;;oui;;;||https://www.brasseriealpaca.com/shop||||06 83 02 20 49||brasserie.alpaca@gmail.com;oui;;;;47.7063545, -0.740269;Maine-et-Loire
LE MIEL DU CHAT;Art de la table,Bateau,Elevage,Produits apicoles,Produits du terroir (boutique);;;20 Impasse du Pré de l'Arche;;44470;;CARQUEFOU;;44026;47.31851;-1.47823;;0650249082;;;lemielduchat@yahoo.com;lemielduchat.fr;;;Instagram||https://www.instagram.com/lemielduchat.apiculture_/,Facebook||https://www.facebook.com/people/Le-Miel-Du-Chat/100076086517969/?_rdr;;"Agriculture / horticulture / Pêche;Agro-alimentaire;Loisirs et activités";;;;;oui;;;Français;;;;oui;;;;;;;;;Français;;;;;;;;;;Cartes bancaires,Chèques bancaires et postaux,Espèces,Virement;47.31851, -1.47823;Loire-Atlantique
Artiste peintre René-Claude Migaud;Peinture;;;20 rue Jules Verne;;44420;;LA TURBALLE;;44211;47.34291;-2.50085;;06 95 31 42 79;09 73 51 91 43;;r.migaud@gmail.com;;;;;;Artisanat / Art;;;oui;;oui;;;;;;;;;;;;;;;;;;;;;;;;;;;47.34291, -2.50085;Loire-Atlantique
Domaine du Vieux Bourg;Vins;;;30 Grand Rue;;49400;;VARRAINS;;49362;47.224693;-0.061723;;;02 41 52 91 89;;n.girard@vieux-bourg.com;http://www.vieux-bourg.com;;;Google+||https://maps.google.com/?cid=13196390152874887522;;Viticulture;Caves touristiques vignoble de Loire,Haute valeur environnementale (HVE),Vigneron Indépendant,Vignobles et découvertes;;;;oui;;;Anglais;"Crémant de Loire;Saumur;Saumur Blanc;Saumur Champigny;Saumur Rosé";;;oui;60min;60min;oui;oui;;;;oui;Français,Anglais;;;;01/01/2025||30/12/2025||Pour connaitre le détail, contacter l'établissement.||||||||||||||||||||||||||||||||||||||||||||||||||||||||||;;;;oui;;Cartes bancaires,Chèques bancaires et postaux,Espèces;47.224693, -0.061723;Maine-et-Loire
DOMAINE DES CHAPELLES;Vins;;;329, Chasles;Thouarcé;49380;;BELLEVIGNE-EN-LAYON;;49345;47.2542768;-0.528966;;;02 41 80 27 58;;domaine.des.chapelles@orange.fr;https://www.domaine-des-chapelles.fr/;;;Facebook||https://www.facebook.com/domainedeschapelles,Instagram||https://www.instagram.com/?hl=fr;;Viticulture;Caves touristiques vignoble de Loire,Haute valeur environnementale (HVE);;oui;;oui;;;Anglais,Français;"Anjou Blanc;Anjou Rouge;Bonnezeaux;Cabernet d'Anjou;Coteaux du Layon;Crémant de Loire;Rosé de Loire";oui;oui;oui;;;;;;;non;non;Français,Anglais;non;;oui;;;;;oui;;Cartes bancaires,Chèques bancaires et postaux,Espèces;47.2542768, -0.528966;Maine-et-Loire
Domaine des Galmoises;Vins;;;37 rue Emile Landais;Chacé;49400;;BELLEVIGNE-LES-CHATEAUX;;49060;47.21321;-0.06887;;;02 41 52 99 98;;dom.galmoises@gmail.com;;;;Facebook||https://www.facebook.com/Domaine-des-Galmoises-309714079611381/;;Viticulture;Haute valeur environnementale (HVE),Vigneron Indépendant;;;;oui;;;Français;"Saumur;Saumur Blanc;Saumur Champigny;Saumur Rosé";;;oui;;;;;;;;;;;;;01/01/2024||31/12/2024||Pour connaitre le détail, contacter l'établissement.||||||||||||||||||||||||||||||||||||||||||||||||||||||||||;;;;oui;;Chèques bancaires et postaux,Espèces;47.21321, -0.06887;Maine-et-Loire
Viande bovine fermière - La Fermélaine;Produits du terroir (boutique),Viande;;;4, Le Bas Atillé;;53220;;SAINT-ELLIER-DU-MAINE;;53213;48.4084828;-1.0144514;;06 30 82 28 95;;;;https://www.fermelaine.fr/;;;Facebook||https://www.facebook.com/profile.php?id=100066630445568;;"Agriculture / horticulture / Pêche;Agro-alimentaire";;;;;oui;;;Français;;;non;oui;;;;;;;;;;oui;;oui;01/01/2025||31/12/2025||sur rendez-vous uniquement||||||||||||||||||||||||||||||||||||||||||||||||||||||||||;Mme Langelier Mélaine||06 30 82 28 95||;;;oui;;Chèques bancaires et postaux,Espèces;48.4084828, -1.0144514;Mayenne
Domaine de Gatines;Vins;;;6 rue des Jonchères;TIGNE;49540;LYS-HAUT-LAYON;LYS-HAUT-LAYON;;49373;47.19657;-0.42869;;;02 41 59 41 48;;domainedegatines@gmail.com;http://www.domainedegatines.fr/;;;Facebook||https://www.facebook.com/DomaineDeGatines;;Viticulture;Caves touristiques vignoble de Loire,Haute valeur environnementale (HVE),Vigneron Indépendant,Vignobles et découvertes;;;;oui;;;Anglais,Français;"Anjou Rouge;Anjou Villages;Cabernet d'Anjou;Coteaux du Layon;Rosé d'Anjou;Rosé de Loire;Saumur Brut";oui;oui;oui;;;;;;;oui;oui;;;;oui;01/01/2024||31/12/2025||||||08:00||12:00||14:00||18:30||08:00||12:00||14:00||18:30||08:00||12:00||14:00||18:30||08:00||12:00||14:00||18:30||08:00||12:00||14:00||18:30||08:00||12:00||14:00||18:30||||||||;;;;oui;;Cartes bancaires,Chèques bancaires et postaux,Espèces,Virement;47.19657, -0.42869;Maine-et-Loire
SpirAL des Sables;Biscuit,Confiserie / chocolat,Plantes et fleurs,Produits apicoles,Spiruline;;;6 rue des sables;;49730;;VARENNES-SUR-LOIRE;;49361;47.255962;0.002657;;;06 01 79 45 92;;spiraldessables@gmail.com;https://www.spiral-des-sables.fr/;https://www.youtube.com/watch?v=zkJyigSQzCE;;Facebook||https://fr-fr.facebook.com/pg/spiraldessables,Google+||https://www.google.fr/maps/place/Spiral+des+Sables/@47.2770391,0.0081133,13z/data=!4m5!3m4!1s0x47fd5950f030ec05:0xe10d291ac4ea067!8m2!3d47.2558158!4d0.0026567;;"Agriculture / horticulture / Pêche;Agro-alimentaire";;;non;;oui;;;Anglais,Français;;;;oui;30min;;;;;;oui;;;;;;01/04/2025||31/05/2025||Pour connaitre le détail, contacter l'établissement.||||||||||||||||||||||||||||||||||||||||||||||||||||||||||,01/06/2025||30/09/2025||Pour connaitre le détail, contacter l'établissement.||||||||||||||||||||||||||||||||||||||||||||||||||||||||||,01/10/2025||20/12/2025||Pour connaitre le détail, contacter l'établissement.||||||||||||||||||||||||||||||||||||||||||||||||||||||||||;;;;non;;Cartes bancaires,Chèques bancaires et postaux,Espèces,Virement;47.255962, 0.002657;Maine-et-Loire
Domaine des Sables Verts;Vins;;;66 Grande Rue;;49400;;VARRAINS;;49362;47.26656;-0.03471;;;02 41 40 39 44;;contact@sablesverts.com;;;;Facebook||https://www.facebook.com/domainedessablesverts/;;Viticulture;Haute valeur environnementale (HVE);;;;oui;;;Anglais,Français;"Saumur;Saumur Blanc;Saumur Champigny";;;oui;;;oui;oui;;;;oui;Français;;;;01/01/2024||31/12/2024||Pour connaitre le détail, contacter l'établissement.||||||||||||||||||||||||||||||||||||||||||||||||||||||||||;;;;oui;;Chèques bancaires et postaux,Espèces;47.26656, -0.03471;Maine-et-Loire
La cabane à Spiruline  - Finca;Fruits de mer;;;733 rue des Buis;Arthon;44320;;CHAUMES-EN-RETZ;;44005;47.13462;-1.9202;;06 82 54 47 77;02 40 64 15 41;;lacabaneaspiruline@gmail.com;http://www.lacabaneaspiruline.fr;;;;;"Agriculture / horticulture / Pêche;Agro-alimentaire";;;;tolérés en laisse;oui;;;;;;;oui;;;oui;oui;;;oui;;;oui;;;01/01/2024||31/12/2024||||||08:30||17:30||||||08:30||17:30||||||08:30||17:30||||||08:30||17:30||||||08:30||17:30||||||||||||||||||||,01/03/2025||30/11/2025||||||09:00||17:00||||||09:00||17:00||||||09:00||17:00||||||09:00||17:00||||||09:00||17:00||||||||||||||||||||;;;;;;Cartes bancaires,Chèques bancaires et postaux,Espèces;47.13462, -1.9202;Loire-Atlantique
Les Salines de Millac;Sel;;;Chemin des Jaunais;;44760;;LES MOUTIERS-EN-RETZ;;44106;47.06078;-1.97747;;;06 11 23 87 75;;emnat@salines-de-millac.com;http://www.salines-de-millac.com;;;;;Activités de la mer;;;;tolérés en laisse;oui;;;;;;;oui;1:00;;oui;oui;;;oui;;;;;;01/01/2025||31/12/2025||Boutique||||||||||||10:00||12:00||16:00||18:00||10:00||12:00||16:00||18:00||10:00||12:00||16:00||18:00||10:00||12:00||16:00||18:00||10:00||12:00||16:00||18:00||||||||,15/06/2025||15/09/2025||Visites guidées||||||||||||17:00||17:00||||||17:00||17:00||||||17:00||17:00||||||17:00||17:00||||||17:00||17:00||||||||||||;;;;;;Cartes bancaires,Chèques bancaires et postaux,Espèces;47.06078, -1.97747;Loire-Atlantique
ANNE ET GEORGES DERICKXSEN - SCEA CERES;Fruits / légumes,Viande,Volailles / Oeufs;;;La Touche Moreau;Soeurdres;49330;;LES HAUTS-D'ANJOU;;49080;47.6635804;-0.5672407;;;02 41 93 11 69;;anne.ermine@wanadoo.fr;;;;;;Agriculture / horticulture / Pêche;Agriculture Biologique (AB);;oui;;oui;;;Français;;;;;;;;;;;;;;;;oui;;;;;;;;47.6635804, -0.5672407;Maine-et-Loire
La ferme pédagogique du Fresne;Fruits / légumes,Produits apicoles;;;Le Fresne;Bourgneuf;44580;;VILLENEUVE-EN-RETZ;;44021;47.01276;-1.955;;;06 72 99 72 82;;info@ferme-pedagogique.org;https://www.ferme-pedagogique.org/;;;;;Agriculture / horticulture / Pêche;;;non;;oui;;;;;;oui;oui;02:00;;;oui;;;;oui;;;;;01/01/2024||31/12/2024||||||||||||||||||||||||||||||||||||||||||||||||||||||||||||,01/01/2025||31/12/2025||||||||||||||||||||||||||||||||||||||||||||||||||||||||||||;;;;;;Cartes bancaires,Chèques bancaires et postaux,Espèces;47.01276, -1.955;Loire-Atlantique
LA FERME DU PRESSOIR;Confiture,Fruits / légumes,Produits cidricoles / Jus de fruit,Spiritueux;;;Le Pressoir;;53400;;CRAON;;53084;47.8461903;-0.9375585;;;02 43 06 17 90;02 43 06 17 90;fermedupressoir@wanadoo.fr;http://www.fermedupressoir.com;;;Facebook||https://www.facebook.com/Fermedupressoir,Instagram||https://www.instagram.com/fermedupressoir53/;;Agriculture / horticulture / Pêche;Bienvenue à la Ferme;;oui;;oui;;;Français;;;oui;oui;;;;oui;non;;;;Français;;;oui;;;;;;Tarif indiv. adulte||||||Gratuit pour tous types d'individuels.,Tarif groupe adulte||||||Pour tous types de groupe;Cartes bancaires,Chèques bancaires et postaux,Espèces;47.8461903, -0.9375585;Mayenne
Ferme pédagogique Le Marais de Mira;;;;Rue du Marais;;49730;;VARENNES-SUR-LOIRE;;49361;47.265756;0.007341;;;06 65 21 83 64;;lemaraisdemira@ecomail.eco;https://www.lemaraisdemira.fr/;;;Facebook||https://www.facebook.com/lemaraisdemira/,Instagram||https://instagram.com/maraismira;;Agriculture / horticulture / Pêche;;;non;;oui;;;Français;;;;;90min;;oui;oui;;;;oui;;;;;01/01/2024||31/12/2024||Pour connaitre le détail, contacter l'établissement.||||||||||||||||||||||||||||||||||||||||||||||||||||||||||;;;;non;;Chèques bancaires et postaux,Espèces;47.265756, 0.007341;Maine-et-Loire
Luthier;Instrument de musique;3 rue de l'Oratoire Saint Hubert;;;;53370;;SAINT-PIERRE-DES-NIDS;;53246;48.3964649;-0.1011528;;;02 43 08 35 73;;leluthier.fr@gmail.com;www.leluthier.fr;;;;;Artisanat / Art;Métiers d'art;;oui;;oui;;;Français;;non;non;non;;;;;oui;;;;Français;oui;;oui;||||Je reçois sur rendez-vous. Veuillez m'indiquer le jour et l'heure qui vous conviennent le mieux.||||||||||||||||||||||||||||||||||||||||||||||||||||||||||;;;;oui;;Cartes bancaires,Chèques bancaires et postaux;48.3964649, -0.1011528;Mayenne
DES CLICS AU POTAGER;Fruits / légumes;Les Bellouvries;;;;53500;;SAINT-PIERRE-DES-LANDES;;53245;48.273926;-1.0258029;;;02 43 05 75 61;;jouaultbio@aol.com;http://www.desclicsaupotager.fr;;;;;"Agriculture / horticulture / Pêche;Agro-alimentaire";;;non;;oui;;;;;;;oui;;;;;;;;oui;Français;;;oui;;JOUAULT||02 43 05 75 61||jouaultbio@aol.com;;;;;;48.273926, -1.0258029;Mayenne
DOMAINE DU BUISSON;Vins;;;9 Zone d'Activité de Rigal;LA CHAPELLE-SAINT-FLORENT;49410;;MAUGES-SUR-LOIRE;;49244;47.3300056;-1.0568346;;06 66 25 71 07;02 41 72 73 91;;domaine.du.buisson@orange.fr;https://domaine-du-buisson.com;;;Facebook||https://www.facebook.com/EARL-Domaine-Du-Buisson-108202983847788,Instagram||https://www.instagram.com/domainedubuisson,||https://www.linkedin.com/company/earl-du-domaine-du-buisson/?viewAsMember=true,Tiktok||https://www.tiktok.com/@domainedubuisson?is_from_webapp=1&sender_device=pc,Pinterest||https://fr.pinterest.com/domainedubuisson/;;Viticulture;Haute valeur environnementale (HVE);;oui;;oui;10;;Anglais,Français;"Cabernet d'Anjou;Coteaux d'Ancenis;Gros Plant du Pays Nantais;Muscadet;Muscadet Coteaux de la Loire;Rosé d'Anjou;Rosé de Loire";oui;oui;oui;1h;1h;non;oui;non;;non;oui;Français,Anglais;non;;oui;01/01/2024||31/12/2025||||Possibilité de rendez-vous sur demande||17:30||18:30||||||17:30||18:30||||||17:30||18:30||||||17:30||18:30||||||17:30||18:30||||||||||||||||||||;;;;oui;;Cartes bancaires,Chèques bancaires et postaux,Espèces,Virement;47.3300056, -1.0568346;Maine-et-Loire
Bois Tournés Plessis;Art de la table,Décoration d'intérieur,Sculpture,Travail du bois;;;La Petite Houssaie;;72350;;AVESSE;;72019;47.9545735;-0.2768131;;06 37 67 43 16;02 43 92 45 46;;dobartbois@orange.fr;;;;Facebook||https://www.facebook.com/Bois-tourn%C3%A9-plessis-187813257937106/?fref=ts,Instagram||https://www.instagram.com/mrtouc/;;Artisanat / Art;Métiers d'art;;oui;;oui;10;;Français;;;;;;;oui;oui;;oui;;oui;Français;;;oui;01/01/2025||31/12/2025|| Ouvert sur rendez-vous||||||||||||||||||||||||||||||||||||||||||||||||||||||||||;;;;oui;;Cartes bancaires,Chèques bancaires et postaux,Espèces;47.9545735, -0.2768131;Sarthe
ATELIER VERONIQUE LESAGE;Peinture,Sculpture;;;10 place des halles;;72260;;RENE;;72251;48.2788498;0.22256592;;06 82 07 68 37;;;v.lesage.artiste@wanadoo.fr;http://www.veronique-lesage-artiste.com;;;;;Artisanat / Art;;;oui;petits chiens tenus en laisse;oui;10;1;Français;;non;non;oui;00h15;00h20;oui;oui;oui;oui;oui;oui;Français;oui;;oui;||||visites sur rendez-vous et lors d'expositions||||||||||||||||||||||||||||||||||||||||||||||||||||||||||;Véronique Lesage||06 82 07 68 37||v.lesage.artiste@wanadoo.fr,Véronique Lesage||06 82 07 68 37||v.lesage.artiste@wanadoo.fr;;;oui;;Chèques bancaires et postaux;48.2788498, 0.22256592;Sarthe
Domaine Topaze;Vins;;;22 Rue de la Poste;;44690;;MONNIERES;;44100;47.1326744;-1.3540904;;06 08 34 37 46;02 40 54 64 91;;jpaul@topaze-monnieres.com;https://www.topaze-monnieres.com/;;;;;Viticulture;Agriculture Biologique (AB),Ambassadeur Val de Loire,Bienvenue à la Ferme,Vigneron Indépendant;;oui;;oui;10;2;Anglais,Français;"Muscadet;Muscadets communaux;Muscadet Sèvre-et-Maine";oui;oui;oui;1h;1h;oui;oui;non;oui;oui;oui;Français,Anglais;non;;oui;05/01/2025||31/12/2025||||||09:00||||||17:00||||||14:00||20:00||||||14:00||20:00||||||14:00||20:00||||||14:00||20:00||||||14:00||20:00||||||14:00||18:00;SAUVAGET Nathalie||06 08 34 37 46||jpaul@topaze-monnieres.com;;;oui;Tarif indiv. adulte||7,50||||Balade dans les vignes et dégustation gourmande à la cave;Cartes bancaires,Chèques bancaires et postaux,Chèques Vacances,Chèques Vacances Connect,Espèces,Virement;47.1326744, -1.3540904;Loire-Atlantique
Domaine Poiron Dabin;Vins;;;4 Chantegrolle;;44690;;CHATEAU-THEBAUD;;44037;47.1354715;-1.4425184;;;02 40 06 56 42;02 40 06 58 02;contact@poiron-dabin.com;http://www.poiron-dabin.com;http://youtu.be/tNDOQsfu-fU;"<iframe width=""560"" height=""315"" src=""http://www.youtube.com/embed/tNDOQsfu-fU"" frameborder=""0"" allowfullscreen></iframe><span data-champcoderef="" "" id=""91aa2680-31ec-4342-9ac8-e0883d7f44d3"" type=""champSimple""><br /></span>";;;"Loisirs et activités;Viticulture";Ambassadeur Val de Loire,Caves touristiques vignoble de Loire,Haute valeur environnementale (HVE),Vigneron Indépendant,Vignobles et découvertes;;;nous consulter;oui;15;;Anglais,Espagnol,Français;"Muscadets communaux;Muscadet Sèvre-et-Maine";oui;oui;oui;;;non;non;non;non;non;non;Français,Anglais;non;;oui;||||||||09:00||12:00||14:00||18:00||09:00||12:00||14:00||18:00||09:00||12:00||14:00||18:00||09:00||12:00||14:00||18:00||09:00||12:00||14:00||18:00||09:00||12:00||14:00||18:00||||||||;Poiron||02 40 06 56 42||contact@poiron-dabin.com;;;oui;;Cartes bancaires,Chèques bancaires et postaux,Espèces;47.1354715, -1.4425184;Loire-Atlantique
Les Epicuriens - Nantes Food Tour;Produits du terroir (boutique);;;Les Rongères;;44430;;LE LANDREAU;;44079;47.21811;-1.55302;;06 84 35 11 03;;;contact@lesepicuriensnantes.com;www.lesepicuriensnantes.com;;;;;Loisirs et activités;;;;;oui;15;2;Anglais,Espagnol,Français,Italien;;non;;;2h30;2H30;oui;oui;;;oui;oui;Français,Anglais,Espagnol;;;oui;;;;;oui;;Cartes bancaires,Virement;47.21811, -1.55302;Loire-Atlantique
CAVISTE - LA CAVE DE VINCENT;Art de la table,Bières,Produits cidricoles / Jus de fruit,Spiritueux,Verre,Vins;;;42 rue du vieux pont;;49290;;CHALONNES-SUR-LOIRE;;49063;47.35167;-0.76005;;;02 41 44 11 03;;contact@cavedevincent.fr;cavedevincent.com;;;Facebook||https://www.facebook.com/cavedevincentchalonnes/,Instagram||https://www.instagram.com/lacavedevincent/;;;;;oui;;oui;15;4;Français;"Anjou Blanc;Anjou Coteaux de la Loire;Anjou Gamay;Anjou Rouge;Anjou Villages;Anjou Villages Brissac;Bourgueil;Cabernet d'Anjou;Cheverny;Chinon;Coteaux d'Ancenis;Coteaux de l'Aubance;Coteaux du Layon;Coteaux du Layon Premier Cru Chaume;Coteaux du Loir;Cour Cheverny;Crémant de Loire;Gros Plant du Pays Nantais;Jasnières;Menetou Salon;Montlouis;Muscadet;Muscadets communaux;Muscadet Coteaux de la Loire;Muscadet Sèvre-et-Maine;Pouilly Fumé;Quarts de Chaume grand cru;Quincy;Reuilly;Rosé de Loire;Saint Nicolas de Bourgueil;Sancerre;Saumur;Saumur Blanc;Saumur Brut;Saumur Champigny;Saumur Puy Notre Dame;Saumur Rouge;Savennières;Savennières Roche aux Moines;Touraine;Touraine Chenonceaux;Vouvray";;;;;;;;oui;;;;Français;oui;;oui;01/01/2025||31/12/2025||||||||||||||10:00||12:30||14:30||19:00||10:00||12:30||14:30||19:00||10:00||12:30||14:30||19:00||09:30||13:00||14:30||19:00||09:30||13:00||14:30||19:00||||||||;;;;oui;;Cartes bancaires,Espèces,Virement;47.35167, -0.76005;Maine-et-Loire
Brasserie associative de Montflours (BAM);Bières;ZA du Mottay;;Route de Sacé;;53240;;MONTFLOURS;;53156;48.1730416;-0.7314723;;;06 01 05 34 56;;;;;;||http://www.brasserie-montflours.fr/;;"Agro-alimentaire;Artisanat / Art";Nature et Progrès;;;;oui;15;8;Français;;;oui;oui;1h;1h;non;oui;non;oui;;oui;Français;non;;oui;||||Sur rendez-vous uniquement||||||||||||||||||||||||||||||||||||||||||||||||||||||||||;Cédric Soufflet||06 01 05 34 56||brasserie.montflours@orange.fr;;;oui;Tarif groupe adulte||5,00||5,00||Visite sur RV d'1h avec dégustation;Cartes bancaires,Chèques bancaires et postaux,Espèces;48.1730416, -0.7314723;Mayenne
Château du Bois Huaut;Huile,Vins;;;Le Bois huaut;;44190;;GORGES;;44064;47.1160999;-1.275143;;06 20 09 48 02;02 40 36 10 79;0240542466;duret.famille@wanadoo.fr;https://sites.google.com/site/chateauduboishuaut/home;;;Facebook||https://fr-fr.facebook.com/chateauduboishuaut;;Viticulture;Caves touristiques vignoble de Loire;;oui;;oui;18;1;Espagnol,Français;"Muscadet;Muscadet Sèvre-et-Maine";oui;oui;oui;2 heures;2h;oui;oui;oui;oui;oui;oui;Français;oui;;oui;;;;;oui;Tarif indiv. adulte||||||Visite du domaine, cours d'oenologie et 3 bouteilles offertes par personne;Cartes bancaires,Chèques bancaires et postaux,Espèces;47.1160999, -1.275143;Loire-Atlantique
LA LOUPIOTE;Bières,Biscuit,Confiserie / chocolat,Confiture,Eau,Epices / Condiment,Fromage et produit laitier,Fruits / légumes,Huile,Jouet et jeu,Pain / Pâtisserie,Produits apicoles,Produits cidricoles / Jus de fruit,Produits du terroir (boutique),Rillettes,Sel,Viande,Vins,Volailles / Oeufs;;;14 Rue des Forges;;53360;;HOUSSAY;;53117;47.91493;-0.7349;;;02 49 80 16 28;;laloupiote@yahoo.com;;;;Facebook||https://www.facebook.com/laloupiote53/;;"Agro-alimentaire;Loisirs et activités";;;oui;Les chiens peuvent s'installer dans la cour... Une gamelle les attend si vous le désirez;oui;20;;Anglais,Espagnol,Français;;;;;;;;;;;;;Français,Anglais,Espagnol;;;oui;;;;;oui;;Cartes bancaires,Chèques bancaires et postaux,Espèces,Tickets Restaurant;47.91493, -0.7349;Mayenne
CONFIDENCES D'AUSSIGOUINS;Vins;6 rue de Briançon;;;;49750;;BELLEVIGNE-EN-LAYON;;49345;47.2952802;-0.573748;;06 61 82 91 79;;;aussigouins@orange.fr;;;;;;Viticulture;;;;;oui;20;;Français;;oui;oui;oui;;;;oui;non;;;oui;Français;non;;oui;;;;;oui;;;47.2952802, -0.573748;Maine-et-Loire
La résidence d'artiste céramiste;Céramique, faïence, émail,Poterie;La Pucelle;;;;72110;;PREVELLES;;72246;48.152352;0.481916;;02 43 71 88 28;;;;;;;;;Artisanat / Art;;;non;;oui;20;;Français;;;;;;;;;;;;;;;Partenariat||DEGPDL072V50F9TE;oui;;||02 43 93 01 95||;;;;;Chèques bancaires et postaux;48.152352, 0.481916;Sarthe
